id_lieu,nom_lieu,adresse_lieu,commune,code_INSEE_Lieu,type_lieu,longitude,latitude
0,Parking intermodal Gare d'Ambérieu en Bugey,"Rue Emile Bravet, Ambérieu en Bugey",AMBERIEU-EN-BUGEY,01004,Parking,5.34119617,45.956598704
1,Arrêt covoit'ici Ambérieu en Bugey,Gare d'Ambérieu en Bugey,AMBERIEU-EN-BUGEY,01004,Auto-stop,5.34272020620408,45.954232106707
2,Mairie d'Attignat,Place De La Fontaine- Anciens Combattants,ATTIGNAT,01024,Parking,5.158352778,46.28957222
3,Bourg-Nord,Dept. 01 - Autoroute A40 - Diffuseur n°5,ATTIGNAT,01024,Aire de covoiturage,5.168004,46.259779
4,Parking de covoiturage du Revirat,RD 1084 - BALAN (Sortie n°6 Balan),BALAN,01027,Aire de covoiturage,5.099374,45.850267
5,Balan,Dept. 01 - Autoroute A42 - Diffuseur n°6,BALAN,01027,Sortie d'autoroute,5.1003936,45.850757
6,Beaupont,Dept. 01 - Autoroute A39 - Diffuseur n°10,BEAUPONT,01029,Aire de covoiturage,5.26919,46.440334
7,Aire de covoiturage Montluel,La Boisse,LA BOISSE,01049,Aire de covoiturage,5.048432,45.840543
8,Parking de covoiturage des Pré-Seigneurs,Avenue des Pré-seigneurs - La BOISSE ,LA BOISSE,01049,Aire de covoiturage,5.049643,45.842463
9,Buellas,Place feux Corgenon D45,BUELLAS,01065,Parking,5.1578889,46.1966036
10,Champfromier,Route des Burgondes,Champfromier,01081,Auto-stop,5.81559,46.1935000
11,Aire de covoiturage Château-Gaillard,Dept. 01 - Autoroute A42 - Diffuseur n°8,CHATEAU-GAILLARD,01089,Sortie d'autoroute,5.312245,45.97676748
12,Parking Bel Air,Route De Neuville - Parking Bel Air,CHATILLON SUR CHALARONNE,01093,Parking,4.964663889,46.12900556
13,Parking La Genetiere,Route De Bourg - La Genetiere,CHAVEYRIAT,01096,Parking,5.073319444,46.17810278
14,Place du Monument,Route De Condeissiat - Place Du Monument,CHAVEYRIAT,01096,Parking,5.059761111,46.19888333
15,Place du Logis Neuf,Place Du Logis Neuf,CONFRANCON,01115,Parking,5.055497222,46.25655278
16,Corveissiat,place Charles Blétel le long de la RD 936 ,CORVEISSIAT,01125,Parking,5.480195,46.24133
17,Crottet,sortie d'autoroute au rond point ,CROTTET,01134,Aire de covoiturage,4.8749,46.28444
18,Pont-de-Veyle ,Gare de Pont-de-Veyle,CROTTET,01134,Aire de covoiturage,4.89233,46.26777
19,Place de L'Eglise,Route De Pont D'Ain - Monument Aux Morts,DRUILLAT,01151,Parking,5.31775,46.05911111
20,Place Sans Souci,Place Sans Souci,JASSERON,01195,Parking,5.3263,46.21393889
21,Parking Chemin de L'Ecole,Chemin De L'école,JAYAT,01196,Parking,5.119902778,46.36907222
22,Arrêt Covoit'Ici Leyment,D77 Leyment,LEYMENT,01213,Auto-stop,5.29363609551392,45.9232284166074
23,Arrêt Covoit'ici Loyettes,"Rue du Bugey, Loyettes",LOYETTES,01224,Auto-stop,5.21134013935319,45.7778304685121
24,Place de L'Eglise,Place De L'église,MARSONNAS,01236,Parking,5.071047222,46.34124722
25,Parking intermodal Gare de Meximieux Pérouges,"Chemin des Verchères, Meximieux",MEXIMIEUX,01244,Parking,5.193117661,45.9012415
26,Place de Bohas,D979 Place De Bohas,BOHAS MEYRIAT RIGNAT,01245,Parking,5.388425,46.15994722
27,Aire de covoiturage du Mionnay,Mionnay,MIONNAY,01248,Sortie d'autoroute,4.899796871,45.8831017
28,Aire de covoiturage de Mionnay (01390),Sortie d'autoroute Demi-échangeur A46,MIONNAY,01248,Aire de covoiturage,4.8997728,45.883082
29,MISÉRIEUX- Chemin du Gouverneur,"337 Grande Rue, 01600 Misérieux",MISERIEUX,01250,Aire de covoiturage,4.809038,45.976695
30,Aire de covoiturage ,"RD933, 01140 Mogneneins (à l'arrêt de bus RD933 Centre) ",MOGNENEINS,01252,Aire de covoiturage,4.80670263,46.14092377
31,Place General de gaulle,Place Du Général De Gaulle,MONTREVEL EN BRESSE,01266,Parking,5.125961111,46.33573333
32,Montrevel,place De Gaulle,MONTREVEL-EN-BRESSE,01266,Parking,5.1269114963524,46.3361873
33,"Parking de covoiturage, La Côte",780 Route de Balan - Dept. 01 - Autoroute A42 - Diffuseur n° 5.1,NIEVROZ,01276,Aire de covoiturage,5.05087933,45.8379163
34,Aire de covoiturage Pérouges,Pérouges,PEROUGES,01290,Sortie d'autoroute,5.182171,45.860683
35,Aire de covoiturage A42 Meximieux Perouges,Dept. 01 - Autoroute A42 - Diffuseur n°7,PEROUGES,01290,Aire de covoiturage,5.18408351337754,45.8597518026284
36,Parking du Stade,"Route Saint Martin Le Chétel ""Stade""",POLLIAT,01301,Parking,5.126572,46.251132
37,Parking Quinconces,"Route De Chamonin - ""Quinconces""",POLLIAT,01301,Parking,5.121596,46.250066
38,Pont-d'Ain,Dept. 01 - Autoroute A42 - Diffuseur n°9,PONT-D'AIN,01304,Aire de covoiturage,5.33049,46.049867545
39,Parking Mairie,Place de la Mairie,Saint-Cyr-sur-Menthon,01343,Parking,4.974385,46.275074
40,Terrain de Boules - Chemin des Lyonniéres,Chemin Des Lyonniéres - Terrain De Boules,ST ETIENNE DU BOIS,01350,Parking,5.289722222,46.28322222
41,Terrain de Boules - Chemin des Lyonnières,chemin des Lyonnières - terrain de boules,SAINT-ETIENNE-DU-BOIS,01350,Aire de covoiturage,5.289722,46.2832222
42,SAINTE-EUPHÉMIE,"841 rue de la mairie, 01600 SAINTE-EUPHÉMIE",SAINTE-EUPHEMIE,01353,Aire de covoiturage,4.793284,45.971647
43,Arrêt Covoit'ici Lste Julie,"Route de Leyment, Sainte Julie",SAINTE-JULIE,01366,Auto-stop,5.27922083937107,45.8907693335394
44,Aire de covoiturage Saint-Maurice-De-Beynost,Saint-Maurice-De-Beynost,ST MAURICE DE BEYNOST,01376,Sortie d'autoroute,4.989172,45.820935
45,Parking de covoiturage de St Sorlin en Bugey,"Rond Point du Pont de Lagnieu, 01150, Saint-Sorlin-en-Bugey",SAINT-SORLIN-EN-BUGEY,01386,Aire de covoiturage,5.34734366168449,45.8857341648967
46,Arrêt Covoit'ici St Sorlin en Bugey,"Route du Port, Saint Solrin en Bugey",SAINT-SORLIN-EN-BUGEY,01386,Auto-stop,5.37029535905082,45.8849147277107
47,Arrêt Covoit'ici Centrale EDF,"Parking RTE Centrale EDF Bugey, D20, Saint Vlubas",SAINT-VULBAS,01390,Auto-stop,5.25456408521974,45.7957709495424
48,Arrêt Covoit'ici PIPA Nord,"Avenue des Bergeries, Saint Vulbas",SAINT-VULBAS,01390,Auto-stop,5.28413734870342,45.8479994791312
49,Arrêt Covoit'ici PIPA Sud,"Rue Charles de Gaulle, Saint Vulbas",SAINT-VULBAS,01390,Auto-stop,5.28684558357301,45.8368502178655
50,Arrêt Covoit'ici Sault Brenaz,"Grand Rue, Sault Brenaz",SAULT-BRENAZ,01396,Auto-stop,5.40546777519829,45.8577068695411
51,Parking des Sports,D1083 Servas,SERVAS,01405,Aire de covoiturage,5.163272,46.131197
52,Place de La Fontaine,Place De La Fontaine- Anciens Combattants,TOSSIAT,01422,Parking,5.316269444,46.14157222
53,Bourg-Sud,Dept. 01 - Autoroute A40 - Diffuseur n°7,TOSSIAT,01422,Aire de covoiturage,5.28546756,46.145169
54,TOUSSIEUX- Salle des fêtes,"194 route de Sainte-Euphémie, 01600 TOUSSIEUX",TOUSSIEUX,01423,Aire de covoiturage,4.822062,45.96017
55,Parking du Stade,Stade De Sport,VAL REVERMONT,01426,Parking,5.362436111,46.26710278
56,TRÉVOUX - Saint Mamet,"5 rue Robert Baltié, 01600 TRÉVOUX",TREVOUX,01427,Aire de covoiturage,4.768434,45.940257
57,Trévoux - Chantegrillet,Rue de la Montluelde 01600 Trévoux,TREVOUX,01427,Aire de covoiturage,4.780993,45.940813
58,Mairie de Vandeins,D45 Vandeins,VANDEINS,01429,Aire de covoiturage,5.078811,46.215842
59,Viriat,Dept. 01 - Autoroute A40 - Diffuseur n°6,VIRIAT,01451,Aire de covoiturage,5.272827,46.2363254
60,Péage Laon,Gare De Péage. Autoroute A26. 02000 Chambry,CHAMBRY,02157,Sortie d'autoroute,3.663798596,49.60744757
61,Super U Charly Sur Marne,Route De Pavant. 02310 Charly-Sur-Marne,CHARLY SUR MARNE,02163,Supermarché,3.282443232,48.97251912
62,Covoiturage SANEF Château-Thierry,A4 Sortie 20 La Planchette 02400 Bézu-Saint-Germain,CHATEAU THIERRY,02168,Sortie d'autoroute,3.400251563,49.07858266
63,Carrefour Chateau Thierry,37 Avenue d'Essémes. 02400 Chéteau-Thierry,CHATEAU THIERRY,02168,Supermarché,3.387474767,49.0406979
64,Leclerc Chéteau Thierry,12 Rue de la Plaine. 02400 Chéteau-Thierry,CHATEAU THIERRY,02168,Supermarché,3.389779016,49.03736798
65,Mairie de ConDé En Brie,1 Rond-Point Du Cahot. 02330 ConDé-En-Brie,CONDE EN BRIE,02209,Aire de covoiturage,3.555901022,49.00457585
66,Parking écoquartier Crézancy,2 Rue De Paris. 02650 Crézancy,CREZANCY,02239,Aire de covoiturage,3.513723672,49.04996586
67,Super U Fére En Tardenois,Fére En Tardenois. 02130 Fére-En-Tardenois,FERE EN TARDENOIS,02305,Supermarché,3.516296885,49.20296656
68,Covoiturage SANEF Laon,A26 Sortie 13,LAON,02408,Sortie d'autoroute,3.663693,49.606902
69,Arpheuille Centre,Route départementale 160,Arpheuilles-Saint-Priest,03007,Auto-stop,2.6785002,46.2243316
70,Arpheuille Centre n°2,Route Départementale n°160,Arpheuilles-Saint-Priest,03007,Auto-stop,2.6783173,46.2242027
71,Montrobert,Route communale,Arpheuilles-Saint-Priest,03007,Auto-stop,2.6421855,46.2480070
72,La Croix de Fer,Carrefour Rd 69 / Rd 160,Arpheuilles-Saint-Priest,03007,Auto-stop,2.6635228,46.2283407
73,Aire de covoiturage de Bizeneuille,Lieudit Fragne,BIZENEUILLE,03031,Aire de covoiturage,2.69891609,46.38681335
74,Aire de Chemilly,Echangeur RCEA (N79),CHEMILLY,03073,Aire de covoiturage,3.31629589,46.47358012
75,Parking de L'Eglise,Place de l'Eglise,CHEMILLY,03073,Parking,3.31658635,46.48921715
76,Parking du Bourg,Place de la LIberté (face garage Renault),COSNE D ALLIER,03084,Parking,2.83054592,46.47558623
77,Parking du Bourg,Le Bourg,CRESSANGES,03092,Parking,3.16075256,46.44417676
78,Aire de covoiturage du Creuzier,Lieudit les Ancizes,CREUZIER LE NEUF,03093,Aire de covoiturage,3.45437124,46.18481218
79,Parking de La Verne,Parking de la Verne,DESERTINES,03098,Parking,2.62639058,46.34439195
80,Stade,Parking du Stade,DOMERAT,03101,Parking,2.54675315,46.35823287
81,Parking Thomassots,Les Thomassots,DOMPIERRE SUR BESBRE,03102,Parking,3.68849384,46.51791574
82,Aire de covoiturage des Chillins,Les Chillins proximité echangeur A71-A719,GANNAT,03118,Aire de covoiturage,3.13837825,46.10311391
83,Place Saint-James,Place Saint James,GANNAT,03118,Parking,3.19906571,46.09634674
84,Za Les Clos durs,ZA les Clos Durs,GANNAT,03118,Parking,3.2030103,46.11107088
85,Parking de La Mairie,Le Bourg,GIPCY,03122,Parking,3.05378868,46.50258963
86,Place du Marché Couvert,Place du Marché Couvert,JALIGNY SUR BESBRE,03132,Parking,3.59436117,46.37931377
87,Aire des Vérités,Bellevue,LAPALISSE,03138,Aire de covoiturage,3.61326614,46.24541141
88,Place Jean Macé,Place Jean Macé,LAPALISSE,03138,Parking,3.62925909,46.24866192
89,Parking terrain de tennis,Parking tennis club,CHANTELLE,03140,Parking,3.157248487341929,46.240771787258986
90,Parking Salle des fetes,Parking salle des fetes,FLEURIEL,03140,Parking,3.1768981715065703,46.282924001479955
91,Marcillat Centre,Grand-Rue,Marcillat-en-Combraille,03161,Auto-stop,2.6314635,46.1674022
92,Marcillat centre n°2,Grand-Rue,Marcillat-en-Combraille,03161,Auto-stop,2.6313074,46.1673228
93,Centre Bourg - 2,Route Départementale RD350,Mazirat,03167,Auto-stop,2.5405941,46.2233201
94,Centre Bourg - 1,Route Départementale RD50,Mazirat,03167,Auto-stop,2.5405819,46.2234939
95,Place du Champ de Foire,Place du champ de foire,LE MONTET,03183,Parking,3.0535136,46.40858365
96,Parking Saint-Jean,Route de Néris,MONTLUCON,03185,Parking,2.6099707,46.32602626
97,Faucheroux,Ave John Kennedy,Montluçon,03185,Auto-stop,2.608654,46.3296130
98,St Jean du haut,62 route de Villebret,Montluçon,03185,Auto-stop,2.6114114,46.3214880
99,Ronnet Centre,Carrefour RD160 / RD 154,Ronnet,03216,Auto-stop,2.6994999,46.2053511
100,Ronnet Centre n°2,Route Départementale n°160,Ronnet,03216,Auto-stop,2.6992571,46.2050540
101,St Fargeol,Carrefour RD 51/ RD 351,Saint-Fargeol,03231,Auto-stop,2.629069,46.1376269
102,St Genest,Route départementale n°50,Saint-Genest,03233,Auto-stop,2.5917511,46.2647797
103,La Grange,Route Départementale 152,Saint-Genest,03233,Auto-stop,2.6300745,46.2563401
104,St Genest,Rouite départementale n°50,Saint-Genest,03233,Auto-stop,2.5919287,46.2647098
105,Parking Salle Polyvalente,Salle Polyvalente. place de la Mairie,ST GERAND DE VAUX,03234,Parking,3.40064274,46.38009454
106,St Marcel en Marcillat,Route Départementale RD 435,Saint-Marcel-en-Marcillat,03244,Auto-stop,2.5903915,46.1449246
107,St Marcel en Marcillat,Route Départementale 432,Saint-Marcel-en-Marcillat,03244,Auto-stop,2.5910523,46.1447780
108,Centre Bourg,Rue du Bon Accueil - RD151,Sainte-Thérence,03261,Auto-stop,2.5606381,46.2423490
109,Carrefour RD151 / RD50,Carrefour Routes départementales RD151 / RD50,Sainte-Thérence,03261,Auto-stop,2.5713095,46.2397744
110,Centre Aqualudique,Parking Centre Aqualudique,ST VICTOR,03262,Parking,2.58529404,46.37863358
111,Terjat - Stade,Route Départementale 109,Terjat,03280,Auto-stop,2.6173882,46.2039665
112,Bar Tabac,Carrefour routes départementales RD109 / RD151,Terjat,03280,Auto-stop,2.6159988,46.2035552
113,Parking Lieu-Dit L'Hermitage,Lieu dit l'Hermitage,TREZELLES,03291,Parking,3.58485918,46.32831573
114,La Goutelle,Route départementale RD50,Villebret,03314,Auto-stop,2.6040991,46.2914927
115,Stade,Route de Beauregard / RD452,Villebret,03314,Auto-stop,2.6286798,46.2776547
116,Villebret Centre,Rue Raoul DAUTRY,Villebret,03314,Auto-stop,2.6376232,46.2681921
117,Beauregard,Route de Beauregard - RD452,Villebret,03314,Auto-stop,2.6187127,46.2818167
118,Parking Avenue Michelet,Avenue Michelet,BELLENAVES,03330,Parking,3.080136817817565,46.19834292198643
119,Parking Rue du 8 mai,Rue du 8 mai 1945,BELLENAVES,03330,Parking,3.077737712447782,46.20091209428352
120,Parking Municipal,Parking municipal Allee des Coteaux,EBREUIL,03450,Aire de covoiturage,3.085740109072696,46.116342591814785
121,Parking place de la liberte,Rue de la pierre Billot,BRANSAT,03500,Parking,3.2289150782108407,46.31918893121457
122,Parking Saulcet,Allee Roger Cherillat,SAULCET,03500,Parking,3.2629259909122985,46.32507311251342
123,Parking de covoiturage,Parking de la Mairie,LE MAYET D'ECOLE,03800,Aire de covoiturage,3.240662055463683,46.16833821857797
124,Parking du Coin Marsat,Place du Coin Marsat,MAZERIER,03800,Parking,3.190297469600161,46.12529001259516
125,Place de La Mairie,5 Place de la Mairie. 04510 Aiglun,AIGLUN,04001,Parking,6.144045,44.050758
126,Parking Allée des Pins,4 Allée des Pins. 04400 Barcelonnette,BARCELONNETTE,04019,Parking,6.635163,44.386475
127,Parking du Cimetiére,Le Village. 04330 Barréme,BARREME,04022,Parking,6.372135,43.955113
128,Parking Parcelle 683 Sur La D951. Ancien Point Relais Information,Les Mouliniers. 05190 Bréziers,BELLAFFAIRE,04026,Parking,6.184797,44.422655
129,Place St Jean La Bégude. Bras D'Asse,1 Route de la Fontaine. 04270 Bras-d'Asse,BRAS D ASSE,04031,Parking,6.13412,43.920125
130,Parking de La Mairie,Le Brusquet - Village. 04420 Le Brusquet,LE BRUSQUET,04036,Parking,6.313541,44.161969
131,Parking du Passavour,La cabine du passavour. 04200 Curel,CUREL,04067,Parking,5.672785,44.176217
132,Parking Décathlon Route de Marseille,5 Route de Marseille. 04000 Digne-les-Bains,DIGNE LES BAINS,04070,Parking,6.17887,44.069529
133,Parking Entrée de Village,D907 à droite de l'entrée du village en arrivant de Mézel,ESTOUBLON,04084,Parking,6.17125,43.943831
134,Place de L'église,2 Le Village. 04400 Faucon-de-Barcelonnette,FAUCON DE BARCELONNETTE,04086,Parking,6.678269,44.393746
135,"Parking devant Le Camping ""Les Lauzons""",Les Bouires,LIMANS,04104,Parking,5.733151,43.973047
136,Parking de L'Esplanade Jean Moulin,4586 Avenue du Général de Gaulle. 04510 Mallemoisson,MALLEMOISSON,04110,Parking,6.126217,44.041722
137,Parking de covoiturage de Manosque,A51 Sortie 18 Manosque,MANOSQUE,04112,Aire de covoiturage,5.811568,43.808712
138,Parking Au Carrefour des 4 Chemins,D117 & D17,MIRABEAU,04122,Parking,6.10239,44.05902
139,Parking de covoiturage de Peyruis,A51 Sortie 20 Peyruis,PEYRUIS,04149,Aire de covoiturage,5.960759,44.038156
140,Parking du Croisement D460 et Rn202 (Au Passage à Niveau),D460. 04240 Saint-Benoét,ST BENOIT,04174,Parking,6.724074,43.960158
141,Parking de covoiturage de Sisteron Nord,A51 Sortie 23 Sisteron Nord,Sisteron,04200,Aire de covoiturage,5.914138,44.224555
142,Sisteron Nord,Sisteron Nord (échangeur n°23 de l'A 51),Sisteron,04209,Aire de covoiturage,5.9143268,44.2242963
143,Parking du Quartier Les Bourres,19 Les Bourres. 04380 Thoard,THOARD,04217,Parking,6.132315,44.136228
144,Place du Village,206 Boulevard Paul Avignon. 04380 Thoard,THOARD,04217,Parking,6.148995,44.149327
145,Parking de La Poste,PLACE FERNAND GILLY. Lotissement le Clét. 04400 Les Thuiles,LES THUILES,04220,Parking,6.572451,44.394026
146,Parking du Stade,Avenue Paul Honnorat. 04250 Turriers,TURRIERS,04222,Parking,6.170568,44.399939
147,Parking de La Za des Chabrand,15 Traverse du Bachelard. 04400 Barcelonnette,UVERNET FOURS,04226,Parking,6.627212,44.377922
148,Parking Godille Tabac,Pra Loup 1500. 04400 Pra-Loup,UVERNET FOURS,04226,Parking,6.614785,44.360672
149,Parking de La Salle Polyvalente,6018 Pl. Frederic Mistral. 04210 Valensole,VALENSOLE,04230,Parking,5.986746,43.836375
150,Aire de Loisirs Mathieu Perona,33 La Coueste. 04290 Volonne,VOLONNE,04244,Parking,6.009842,44.109882
151,Aire de covoiturage de Volx,A51. 04130 Volx,VOLX,04245,Aire de covoiturage,5.848225,43.842979
152,Parking Ecomobilité Croix Rouge,route de grasse,Antibes,06004,Aire de covoiturage,7.0891874016205,43.59712913313066
153,Parking Ecomobilité Martyrs de la résistance,avenue des Martyrs de la Résistance,Antibes,06004,Aire de covoiturage,7.091733468463417,43.59592234427828
154,Parc Relais Alambic,D9. 06130 Grasse,GRASSE,06069,Parking relais,6.936138,43.641102
155,Parc Relais La Canardiére,Zone Industrielle De La Canardiére. Avenue du Maréchal Lyautey. 06210 Mandelieu-la-Napoule,MANDELIEU LA NAPOULE,06079,Parking relais,6.946097,43.553332
156,Parc Relais Giratoire Pénétrante,600 Route de la Roquette. 06370 Mouans-Sartoux,MOUANS SARTOUX,06084,Parking relais,6.967739,43.612562
157,Parc Relais Les Plans,117 Avenue des Ferrayonnes. 06270 Villeneuve-Loubet,VILLENEUVE LOUBET,06161,Parking relais,7.127547,43.652775
158,Station de service Alba la Romaine,D263A. 07400 Alba-la-Romaine,ALBA LA ROMAINE,07005,Parking,4.595806,44.56277
159,Station Essence Torrenson,10 Avenue de Beaucaire. 07340 Andance,ANDANCE,07009,Parking,4.798276,45.23621
160,Aire de covoiturage de Champis,3945 Route de Valence. 07440 Champis,CHAMPIS,07052,Aire de covoiturage,4.765861,44.941659
161,Portes du Pays de Crussol,41 Route Royale. 07240 Chéteauneuf-de-Vernoux,CHATEAUNEUF DE VERNOUX,07060,Parking,4.642699,44.919568
162,Plaisance,5 Chemin d'Aurives. 07160 Le Cheylard,LE CHEYLARD,07064,Parking,4.428552,44.911867
163,Parking Boucherie Valla,Le Village E. 07410 Colombier-le-Vieux,COLOMBIER LE VIEUX,07069,Parking,4.695545,45.066191
164,Salle des fétes,126 Avenue du Colonel Rousset. 07130 Cornas,CORNAS,07070,Parking,4.848119,44.960664
165,Les Chrysanthémes,2 Pl. des Chrysanthemes. 07350 Cruas,CRUAS,07076,Parking,4.759546,44.652089
166,Aire de covoiturage de Davézieux,2147 Route de Lyon. 07430 Saint-Clair,DAVEZIEUX,07078,Aire de covoiturage,4.706238,45.261776
167,Aire de covoiturage de Félines,71 D109. 07340 Felines,FELINES,07089,Aire de covoiturage,4.740932,45.308776
168,Parking Stade Mistral,459 Rue Pierre Curie. 07500 Guilherand-Granges,GUILHERAND GRANGES,07102,Parking,4.884288,44.93741
169,Espace Seroul,D19. 07380 Jaujac,JAUJAC,07107,Parking,4.264253,44.635618
170,Aire de covoiturage Lablachére,D104A. 07230 Lablachére,LABLACHERE,07117,Aire de covoiturage,4.220053,44.458547
171,Parking Lachapelle sous Aubenas,540 Route de Saint-Sernin. 07200 Lachapelle-Sous-Aubenas,LACHAPELLE SOUS AUBENAS,07122,Parking,4.374353,44.570055
172,Le boulodrome,33 Avenue Centrale. 07380 Lalevade-d'Ardéche,LALEVADE D ARDECHE,07127,Parking,4.322269,44.651711
173,Les Déviéres,2 Rue Raoul Follereau. 07270 Lamastre,LAMASTRE,07129,Parking,4.572838,44.982221
174,Coudoulas,N102. 07170 Lavilledieu,LAVILLEDIEU,07138,Parking,4.462739,44.567346
175,Aire de covoiturage de Meysse,1 Rue Chevriére. 07400 Meysse,MEYSSE,07157,Aire de covoiturage,4.724946,44.60963
176,Parking de l'église Saint-Jacques,D578. 07160 Noniéres,NONIERES,07165,Parking,4.486631,44.932481
177,Aire de covoiturage de Peaugres,39 Route des Maures. 07340 Peaugres,PEAUGRES,07172,Aire de covoiturage,4.734216,45.291566
178,Parking arcades voie ferrée,1123 D86. 07250 Le Pouzin,LE POUZIN,07181,Parking,4.750111,44.756025
179,Aire covoiturage de Quintenas,20 D578,QUINTENAS,07188,Aire de covoiturage,4.685986,45.191302
180,Parking du rond point D120,D120. 07320 Saint-Agréve,ST AGREVE,07204,Parking,4.401874,45.006689
181,Parking la poste,Fontaine Bénite. 07790 Saint-Alban-d'Ay,ST ALBAN D AY,07205,Parking,4.63903,45.188619
182,Aire covoiturage de Saint-Clair,1717 D820,SAINT-CLAIR,07225,Aire de covoiturage,4.687803,45.268609
183,Parking D86 La Marequiére,La Marequiére. 07700 Saint-Marcel-d'Ardéche,ST MARCEL D ARDECHE,07264,Parking,4.631091,44.325145
184,Parking du rond point D262,La Borne. 07220 Saint-Montan,ST MONTAN,07279,Parking,4.649549,44.43041
185,Parking Bar Chambon Joel,82 D7. 07000 Saint-Priest,ST PRIEST,07288,Parking,4.574834,44.720736
186,Aire de covoiturage de Saint-Privat,Saint-Privat Gabelu. 07200 Saint-Privat,ST PRIVAT,07289,Aire de covoiturage,4.41817,44.62665
187,Parking en face l'Eglise Reformée,1 Place du Jardin Public. 07190 Saint-Sauveur-de-Montagut,ST SAUVEUR DE MONTAGUT,07295,Parking,4.57777,44.820196
188,Parking en face de Votre marché,35 Chemin de l'Ardéche. 07200 Saint-Sernin,ST SERNIN,07296,Parking,4.393451,44.570891
189,Aire de covoiturage D322,D322. 07210 Saint-Vincent-de-Barrés,ST VINCENT DE BARRES,07302,Aire de covoiturage,4.70616,44.661717
190,Parking Intermarché Soyons,915-891 Chemin du Ruisseau. 07500 Soyons,SOYONS,07316,Parking,4.861913,44.917749
191,Aire de covoiturage du Teil,ZAC Entre Pont et Rhéne. 07400 Le Teil,LE TEIL,07319,Aire de covoiturage,4.68897,44.554489
192,Parking rond point D370A,D370A Vernosc-lès-Annonay,VERNOSC-LES-ANNONAY,07337,Aire de covoiturage,4.715622,45.234351
193,Parking D232,D14. 07240 Vernoux-en-Vivarais,VERNOUX EN VIVARAIS,07338,Parking,4.679828,44.908164
194,Parking Camping Municipal Le Bois de Prat,410 Allée de Prat. 07240 Vernoux-en-Vivarais,VERNOUX EN VIVARAIS,07338,Parking,4.64981,44.902848
195,Parking La Forét des Contes en Vocance,Chemin des Prés Peloux. 07690 Villevocance,VILLEVOCANCE,07342,Parking,4.59487,45.229671
196,Parking La Foret des Contes en Vocance,"Chemin des Pres Peloux, 07690 Villevocance",VILLEVOCANCE,07342,Parking,4.594814,45.229308
197,Aire de covoiturage Les quatre chemins,D86. 07220 Viviers,VIVIERS,07346,Aire de covoiturage,4.678984,44.492627
198,Parking Salle des fétes,1005-2 Rue René Cassin. 07800 La Voulte-sur-Rhéne,LA VOULTE SUR RHONE,07349,Parking,4.785377,44.802728
199,Gare,Place de la gare,Apremont,08017,Auto-stop,4.9916437,49.2696388
200,Herminette,Rue de la gare,Apremont,08017,Auto-stop,4.990663,49.2691800
201,Ecuries,Place de léglise,Apremont,08017,Auto-stop,4.9878004,49.2696564
202,Fontaine,7  grand rue,Les Grandes-Armoises,08019,Auto-stop,4.892242,49.5321200
203,Vermeil,A langle de la grand rue et de la rue de léglise,Les Petites-Armoises,08020,Auto-stop,4.825611,49.5045200
204,Coquelicot,A langle de la grand rue et de la rue de léglise,Les Petites-Armoises,08020,Auto-stop,4.825943,49.5045520
205,Allin,Rue neuve,Aure,08031,Auto-stop,4.636778,49.2732230
206,Perrières,Au silo  sur la D306,Aure,08031,Auto-stop,4.639556,49.2726240
207,Mairie,Angle grande rue et rue du My,Authe,08033,Auto-stop,4.8792011,49.4583130
208,Moulin,Angle de la grande rue et de la rue du moulin,Authe,08033,Auto-stop,4.8788638,49.4587845
209,Thermes,Rue du moulin,Authe,08033,Auto-stop,4.879174,49.4586970
210,Autruche,Gare d'Autruche,Autruche,08035,Auto-stop,4.891641,49.4419150
211,Camping,Rue des ponts,Autry,08036,Auto-stop,4.838759,49.2653750
212,Gerbille,Voie de Challerange,Autry,08036,Auto-stop,4.829328,49.2688130
213,Gecko,Voie de Challerange,Autry,08036,Auto-stop,4.8295,49.2687710
214,Place,Place du village,Autry,08036,Auto-stop,4.838668,49.2678960
215,Notre Dame,Rue Notre Dame,Ballay,08045,Auto-stop,4.747172,49.4291090
216,Martignière,Croisement de la rue de la Martignière et de la rue Notre Dame,Ballay,08045,Auto-stop,4.749522,49.4307100
217,Moulin,Rue du moulin,Bar-lès-Buzancy,08049,Auto-stop,4.941328,49.4327569
218,Fontaine,21  rue principale,Bar-lès-Buzancy,08049,Auto-stop,4.942281,49.4337730
219,Samaritaine,15  rue principale,Bar-lès-Buzancy,08049,Auto-stop,4.941616,49.4339300
220,Grande rue,Face au 21  grande rue,Bayonville,08052,Auto-stop,5.00659,49.3966330
221,Eglise,Angle de la rue derrière léglise et de la route de Buzancy,Bayonville,08052,Auto-stop,5.005431,49.3967660
222,Lavoir,Angle de la rue de Genève et de la route de Buzancy,Bayonville,08052,Auto-stop,5.005265,49.3970560
223,Salle polyvalente,Angle de la rue principale et de la rue Jean Ferry,Belleville-et-Châtillon-sur-Bar,08057,Auto-stop,4.8287004,49.4464752
224,Place,Face au 31  rue principale,Belleville-et-Châtillon-sur-Bar,08057,Auto-stop,4.8291901,49.4467400
225,Ecole,Angle de la rue principale et de la rue de Brieulles,Belleville-et-Châtillon-sur-Bar,08057,Auto-stop,4.8237722,49.4703615
226,Saint Jean,Angle de le rue Saint Jean et de la rue principale,Belleville-et-Châtillon-sur-Bar,08057,Auto-stop,4.8238929,49.4699920
227,EDPAMS,EDPAMS,Belleville-et-Châtillon-sur-Bar,08057,Auto-stop,4.8299662,49.4520348
228,Terrain de foot,A langle de la RD42 et de la rue menant au gymnase,Belleville-et-Châtillon-sur-Bar,08057,Auto-stop,4.8301754,49.4519965
229,Grange,Face au 8  rue principale,Belval-Bois-des-Dames,08059,Auto-stop,5.0362823,49.4690757
230,Mairie,6  rue principale,Belval-Bois-des-Dames,08059,Auto-stop,5.0351236,49.4700415
231,Croisette,Rue de la croisette,Bouconville,08074,Auto-stop,4.762316,49.2552680
232,Mairie,Rue principale,Bouconville,08074,Auto-stop,4.763035,49.2542840
233,Couleurs,13  rue Clarisse Laurent,Boult-aux-Bois,08075,Auto-stop,4.8377502,49.4316999
234,Orge,Rue de la brasserie,Boult-aux-Bois,08075,Auto-stop,4.837648,49.4319030
235,Commanderie,Rue de la Commanderie,Boult-aux-Bois,08075,Auto-stop,4.836173,49.4319560
236,Serres,Face n°16  rue basse,Bourcq,08077,Auto-stop,4.631317,49.3859910
237,Fraises,5  rue basse,Bourcq,08077,Auto-stop,4.630587,49.3856100
238,Palestre,Entre les 11 et 17  rue de lAisne,Brécy-Brières,08082,Auto-stop,4.766479,49.3227510
239,Eglise,Angle de la rue de Savigny et de la rue des brûlis,Brécy-Brières,08082,Auto-stop,4.741191,49.3335610
240,Justine,Angle de la rue Justine et de la rue des brûlis,Brécy-Brières,08082,Auto-stop,4.7414654,49.3335045
241,Kennedy,A langle de la place Kennedy,Brieulles-sur-Bar,08085,Auto-stop,4.8541583,49.4767048
242,Terrasse,Rue du faubourg,Brieulles-sur-Bar,08085,Auto-stop,4.8501198,49.4766058
243,Eiffel,Face au 15  rue du faubourg,Brieulles-sur-Bar,08085,Auto-stop,4.8495807,49.4757344
244,Mémoire,Rue de la porte dAuthe,Brieulles-sur-Bar,08085,Auto-stop,4.8546322,49.4766972
245,Ferme,Face au 9 route de Boult,Briquenay,08086,Auto-stop,4.8784472,49.4063224
246,Place,Angle de la rue du Vivier et de la rue de Boult,Briquenay,08086,Auto-stop,4.8784278,49.4067757
247,Champignon,Rue de la gare,Buzancy,08089,Auto-stop,4.9549113,49.4280153
248,Ecole,Route dAnglure,Buzancy,08089,Auto-stop,4.9565724,49.4279473
249,Place,Face au 2  rue St Christophe,Cauroy,08092,Auto-stop,4.469129,49.3477862
250,Sapin,A langle du 10  route de Reims,Cauroy,08092,Auto-stop,4.4678257,49.3470020
251,Jaurès,Face au 8  avenue Jean Jaurès,Challerange,08097,Auto-stop,4.745423,49.3105442
252,Roxane,14  avenue Jean Jaurès,Challerange,08097,Auto-stop,4.7454504,49.3100629
253,Moulin,2  rue du moulin,Champigneulle,08098,Auto-stop,4.9246908,49.3523623
254,Wattignies,Rue de la boulette de Wattignies,Champigneulle,08098,Auto-stop,4.9243838,49.3519434
255,Mairie,4  rue du brou Hulot,Champigneulle,08098,Auto-stop,4.927049,49.3512142
256,Bibi,Angle de rue de la trèche et de la rue desson,Chardeny,08104,Auto-stop,4.6012954,49.4188564
257,Mairie,Entre le 24 et le 26  rue  Laloy Chenet,Chatel-Chéhéry,08109,Auto-stop,4.953878,49.2819346
258,Place,Rue Laloy Chenet,Chatel-Chéhéry,08109,Auto-stop,4.9540798,49.2818836
259,Mairie,Place de la mairie,Bairon et ses environs,08116,Auto-stop,4.763618,49.5132064
260,Abribus,A langle de la route de Sauville et de la rue de léglise,Bairon et ses environs,08116,Auto-stop,4.7415143,49.5516123
261,Leus,Place de la mairie,Bairon et ses environs,08116,Auto-stop,4.7363921,49.4714428
262,Parlement,Face n°6,place du Parlement Bairon et ses environs,08116,Auto-stop,4.7653385,49.5143473
263,Coco,Rue du zouave coco,face à la rue du dindon Bairon et ses environs,08116,Auto-stop,4.7677927,49.5133030
264,Bayard,Au niveau du 16,rue des 4 fils Aymon Bairon et ses environs,08116,Auto-stop,4.7691346,49.5146743
265,Château,Rue principale,Chevières,08120,Auto-stop,4.8988931,49.3326195
266,Mairie,Angle de la rue de la mairie et de la rue principale,Chevières,08120,Auto-stop,4.898604,49.3326840
267,Boulanger,A langle de la rue principale et de la rue du boulanger,Contreuve,08130,Auto-stop,4.6246353,49.3608507
268,Planchette,A langle de la rue Planchette et de la rue principale,Contreuve,08130,Auto-stop,4.6237367,49.3606113
269,Château,Face au 15  rue basse,Cornay,08131,Auto-stop,4.9497,49.3024640
270,Prieuré,15  rue basse,Cornay,08131,Auto-stop,4.949813,49.3023940
271,Arbres,Angle de la rue des tilleuls et de la rue de la forêt,La Croix-aux-Bois,08135,Auto-stop,4.7933183,49.4023855
272,Mairie,Rue de la forêt,La Croix-aux-Bois,08135,Auto-stop,4.7929611,49.4020901
273,Retourne,Rue de la retourne,Dricourt,08147,Auto-stop,4.5119667,49.3958316
274,Liberté,A langle des rues de la liberté et de la retourne,Dricourt,08147,Auto-stop,4.5124603,49.3959643
275,Notre Dame,41  rue notre dame,Falaise,08164,Auto-stop,4.7295507,49.3785406
276,Abribus,Rue notre dame,Falaise,08164,Auto-stop,4.7279421,49.3825274
277,Bagot,Angle de la rue de notre dame et voie communale 1 dite de Bagot,Falaise,08164,Auto-stop,4.7288491,49.3776492
278,Cerisier,Rue notre dame,Falaise,08164,Auto-stop,4.7281245,49.3825798
279,Mairie,Angle de la rue Fernand Simon et de la rue de lAire.,Fléville,08171,Auto-stop,4.9696134,49.3052875
280,Gîte,Rue Fernand Simon,Fléville,08171,Auto-stop,4.9697982,49.3053122
281,Lavoir,A langle de la route de Buzancy et de la rue de la mairie,Fossé,08176,Auto-stop,5.0045422,49.4452665
282,Ferme,A langle de la route de Buzancy et de la route de Nouart,Fossé,08176,Auto-stop,5.0054986,49.4456657
283,Place,Face à langle de la rue principale et de la route de Briquenay,Germont,08186,Auto-stop,4.87772,49.4370590
284,Gravières,Au niveau du 17  rue principale,Germont,08186,Auto-stop,4.877881,49.4369090
285,Camping,Rue Bastide,Grandpré,08198,Auto-stop,4.8731417,49.3394043
286,Pharmacie,Entre le 14 et le 16 rue chantereine,Grandpré,08198,Auto-stop,4.8722378,49.3413458
287,Moulin,8 rue du moulin,Grandpré,08198,Auto-stop,4.8234853,49.3218364
288,Montflix,Rue Montflix,Grandpré,08198,Auto-stop,4.8641275,49.3400361
289,Eglise,Angle de la rue de léglise et de la route dOlizy,Grandpré,08198,Auto-stop,4.8217195,49.3222462
290,Mémoire,Entre le 6 et le 8 rue Montflix.,Grandpré,08198,Auto-stop,4.8710924,49.3406272
291,Château,Rue Montflix,Grandpré,08198,Auto-stop,4.8641199,49.3399715
292,Fontaine,14  rue basse  08250 Termes,Grandpré,08198,Auto-stop,4.8246264,49.3235057
293,Courtier,Route de Mazagran,Grivy-Loisy,08200,Auto-stop,4.6297287,49.4158857
294,Pierre,Angle de la rue Richelet et de la rue des Erales,Grivy-Loisy,08200,Auto-stop,4.632829,49.4251970
295,Vaire,Route de Mazagran,Grivy-Loisy,08200,Auto-stop,4.630469,49.4157270
296,Marguerite,A côté du 17  rue de Vouziers,Hauviné,08220,Auto-stop,4.403506,49.3043840
297,Neuville,18  rue de Vouziers,Hauviné,08220,Auto-stop,4.403425,49.3044750
298,But,RD15,Liry,08256,Auto-stop,4.6629362,49.3076148
299,Eglise,A l'intersection des rues du château  du montaigut et de léglise,Liry,08256,Auto-stop,4.657484,49.3090120
300,Mairie,Sur la place de la mairie,Liry,08256,Auto-stop,4.658976,49.3074620
301,Abribus,Rue du lavoir,Longwé,08259,Auto-stop,4.788489,49.3896710
302,Prairie,Route de Quatre Champs,Longwé,08259,Auto-stop,4.788499,49.3904530
303,Orme,A langle de la rue de lorme et de la rue des remparts,Machault,08264,Auto-stop,4.4991267,49.3572972
304,Poète,A langle des rues de Guillaume de Machault et rue Caqué.,Machault,08264,Auto-stop,4.499878,49.3547620
305,Quentin,Angle de la ruelle Quentin et du 33  rue Guillaume de Machault,Machault,08264,Auto-stop,4.4996503,49.3544708
306,Eglise,A l'angle de la rue dOrthez et de la rue de léglise,Marcq,08274,Auto-stop,4.9247521,49.3197838
307,Orthez,A l'angle du chemin du Bouvret et de la rue dOrthez,Marcq,08274,Auto-stop,4.9248383,49.3196417
308,Saint Martin,Rue de Montplaisir,Mars-sous-Bourcq,08279,Auto-stop,4.642518,49.3967310
309,Montplaisir,Rue de Montplaisir,Mars-sous-Bourcq,08279,Auto-stop,4.641203,49.3976490
310,Verger,Rue du verger,Mars-sous-Bourcq,08279,Auto-stop,4.6385355,49.3959586
311,Ecole,A l'angle de la rue principale et de la rue de lécole,Marvaux-Vieux,08280,Auto-stop,4.6803881,49.2897262
312,Pommery,Près d'un corisement à la sortie du hameau de Vieux,Marvaux-Vieux,08280,Auto-stop,4.699321,49.2811710
313,Clémenceau,A langle de lavenue Clémenceau et de la rue des écoles,Montcheutin,08296,Auto-stop,4.8206915,49.2912889
314,Le Tigre,Au niveau du 27  avenue Clémenceau,Montcheutin,08296,Auto-stop,4.818385,49.2898870
315,Aisne,Rue principale,Montgon,08301,Auto-stop,4.7137074,49.5048711
316,Chêne,Rue du gros chêne,Monthois,08303,Auto-stop,4.7108005,49.3160644
317,Mairie,10  rue des champs,Monthois,08303,Auto-stop,4.707931,49.3125860
318,Mouton,A langle de la rue de lArgonne et de la rue mouton,Monthois,08303,Auto-stop,4.7094611,49.3110310
319,Remuat,A langle de la rue Jacques dAllamont et rue Remuat,Monthois,08303,Auto-stop,4.709187,49.3126100
320,Beuquette,Rue des monts,Mont-Saint-Martin,08308,Auto-stop,4.643049,49.3346350
321,Prairie,A langle de la rue des monts et de la D21,Mont-Saint-Martin,08308,Auto-stop,4.6524101,49.3368396
322,Retourne,Rue de la retourne,Mont-Saint-Remy,08309,Auto-stop,4.4824144,49.3887129
323,Retourne 2,Rue de la retourne,Mont-Saint-Remy,08309,Auto-stop,4.4824913,49.3887122
324,Saint-Roch,Rue de la fontaine,Oches,08332,Auto-stop,4.924579,49.5034720
325,Fontaine,Grande rue,Oches,08332,Auto-stop,4.925163,49.5037850
326,Couture,18  rue de la couture,Olizy-Primat,08333,Auto-stop,4.7731438,49.3477604
327,PAD,RD946  Bois de Roucy,Olizy-Primat,08333,Auto-stop,4.792775,49.3503630
328,Argonne,Face au 17  rue de lArgonne,Olizy-Primat,08333,Auto-stop,4.778289,49.3460564
329,Etang,Face au 1  rue de lAisne,Olizy-Primat,08333,Auto-stop,4.7746581,49.3450179
330,Lunettes,A langle de la rue principale et de la ruelle de la mairie,Pauvres,08338,Auto-stop,4.492094,49.4106630
331,Foire,A langle de la rue principale et de la route de Juniville,Pauvres,08338,Auto-stop,4.490329,49.4109980
332,Eglise,Face au 16  rue Saint Martin,Quatre-Champs,08350,Auto-stop,4.7665474,49.4449096
333,Saint Martin,Entre le 16 et 18  rue Saint Martin,Quatre-Champs,08350,Auto-stop,4.7669198,49.4449464
334,Eglise,Face au n°3  rue de léglise,Sainte-Marie,08390,Auto-stop,4.6685553,49.3717875
335,Capharnaüm,Face au n°2  rue de léglise,Sainte-Marie,08390,Auto-stop,4.668664,49.3718810
336,Vannerie,6 rue des vanniers,Sainte-Marie,08390,Auto-stop,4.6673088,49.3722594
337,Roland Garros,9  rue Roland Garros,Saint-Morel,08392,Auto-stop,4.6953728,49.3375737
338,Mairie,Rue Roland Garros.,Saint-Morel,08392,Auto-stop,4.6958322,49.3375265
339,Vallée,Au 7  rue de la vallée,Saint-Pierre-à-Arnes,08393,Auto-stop,4.453986,49.2995049
340,Châtelet,En face du 7  rue de la vallée,Saint-Pierre-à-Arnes,08393,Auto-stop,4.4538343,49.2996259
341,Stonne,Du côté du 6  grand rue,Saint-Pierremont,08394,Auto-stop,4.9349101,49.4855461
342,Lavoir,En face du 6  grand rue,Saint-Pierremont,08394,Auto-stop,4.934914,49.4853690
343,Eglise,Angle de la rue de la mairie et de la petite rue perpendiculaire,Sauville,08405,Auto-stop,4.794116,49.5552600
344,Bairon,Angle de la rue de Louvergny et de la rue du lac de Bairon,Sauville,08405,Auto-stop,4.793934,49.5552430
345,Fourriaux,A l'angle de la rue des écoles et de la rue Clémence Fourriaux,Savigny-sur-Aisne,08406,Auto-stop,4.7266068,49.3602641
346,Bagot,Relais de Bagot,Savigny-sur-Aisne,08406,Auto-stop,4.7096475,49.3703826
347,Côme,Rue de la Côme,Savigny-sur-Aisne,08406,Auto-stop,4.7091617,49.3705599
348,Prés,Rue des prés,Savigny-sur-Aisne,08406,Auto-stop,4.7270999,49.3605410
349,Thuya,Face au 4  grande rue,Séchault,08407,Auto-stop,4.7350728,49.2647861
350,Belle Etoile,Rue de la belle étoile,Séchault,08407,Auto-stop,4.7387927,49.2644022
351,Oiseau,Grande rue,Séchault,08407,Auto-stop,4.7350243,49.2646040
352,Daims,Face au 1  rue de lAidain,Semide,08410,Auto-stop,4.5830423,49.3418528
353,Eglise,16  rue de la 6ème DIC,Sommauthe,08424,Auto-stop,4.984413,49.4927160
354,Régate,3  rue de la 6ème DIC,Sommauthe,08424,Auto-stop,4.984226,49.4914620
355,Ruhlmann,Rue Georges Ruhlmann,Sommerance,08425,Auto-stop,4.9849776,49.3282939
356,Merle,Rue Georges Ruhlmann,Sommerance,08425,Auto-stop,4.9849616,49.3282484
357,Eglise,Place Saint Rémi,Sugny,08431,Auto-stop,4.6566494,49.3585967
358,Mairie,Place Saint Rémi,Sugny,08431,Auto-stop,4.6565352,49.3586250
359,Château,Rue de la petite ville,Sy,08434,Auto-stop,4.868789,49.5153320
360,Mairie,5  rue de la petite ville,Sy,08434,Auto-stop,4.868832,49.5157260
361,Château,Angle de la D15 et D115,Tailly,08437,Auto-stop,5.080356,49.4345860
362,Cookie,Andevanne,Tailly,08437,Auto-stop,5.0801619,49.3905731
363,Palmier,Andevanne,Tailly,08437,Auto-stop,5.0800238,49.3905532
364,Eglise,Rémonville,Tailly,08437,Auto-stop,5.0385186,49.3897769
365,Tuileries,Les Tuileries,Tailly,08437,Auto-stop,5.0782032,49.4072232
366,Fontaine,Rémonville,Tailly,08437,Auto-stop,5.0386528,49.3898258
367,Eglise,Barricourt,Tailly,08437,Auto-stop,5.0517714,49.4253816
368,Château 2,Angle de la D15 et D115,Tailly,08437,Auto-stop,5.080147,49.4345860
369,Koala,Barricourt,Tailly,08437,Auto-stop,5.0522971,49.4261284
370,Dugauguez,Rue Montluçon,Tannay,08439,Auto-stop,4.8333392,49.5256970
371,Montluçon,Rue Montluçon,Tannay,08439,Auto-stop,4.8330781,49.5257078
372,Courtoisie,A l'angle de la rue du poirier de cloche et de la ruelle courtoise,Thénorgues,08446,Auto-stop,4.9299376,49.4066499
373,Eglise,Rue de léglise,Thénorgues,08446,Auto-stop,4.9297886,49.4062868
374,Poirier,A l'angle de la rue du poirier de cloche et de la rue des roises,Thénorgues,08446,Auto-stop,4.9289787,49.4065155
375,Forêt,A langle de la rue Quenotte et de la rue de léglise,Toges,08453,Auto-stop,4.775287,49.4245270
376,Saint Amand,19  rue Saint Amand,Tourcelles-Chaumont,08455,Auto-stop,4.605707,49.4013460
377,Mairie,22  rue de Saint Amand,Tourcelles-Chaumont,08455,Auto-stop,4.6037857,49.4015530
378,Paquis,Rue du Paquis,Vandy,08461,Auto-stop,4.7037402,49.4349688
379,Mairie,Place Roger Polet,Vandy,08461,Auto-stop,4.704031,49.4339690
380,Aisne,Route de Vrizy,Vandy,08461,Auto-stop,4.703618,49.4344390
381,Abeille,Entre le 2 et le 4  grande rue,Vaux-lès-Mouron,08464,Auto-stop,4.7836287,49.2998655
382,Eglise,Face au 2  grande rue,Vaux-lès-Mouron,08464,Auto-stop,4.7837967,49.2999185
383,Moulin,Face au 4.rue du moulin,Verpel,08470,Auto-stop,4.9333933,49.3841663
384,Mairie,A l'angle de la rue place de la mairie et de la place de la mairie,Verpel,08470,Auto-stop,4.9337226,49.3836043
385,Presbytère,Rue du grand pont,Verpel,08470,Auto-stop,4.9326104,49.3838285
386,Eglise,Rue principale,Verrières,08471,Auto-stop,4.8725355,49.4938009
387,Château,Au niveau du 11.rue principale,Verrières,08471,Auto-stop,4.8726686,49.4935562
388,Carnot,Place Carnot,Vouziers,08490,Auto-stop,4.7008053,49.3976782
389,Vannerie,Vrizy,Vouziers,08490,Auto-stop,4.6783771,49.4260429
390,Busquet,A l'angle de la rue Augustine Busquet et de lavenue Charles de Gaulle,Vouziers,08490,Auto-stop,4.6990778,49.4128805
391,Fusion,A langle de la rue de la fusion et de la rue verte,Vouziers,08490,Auto-stop,4.697165,49.4041840
392,Cerf,Rue de la briqueterie,Vouziers,08490,Auto-stop,4.6800735,49.3953696
393,Bouleau,Chestres,Vouziers,08490,Auto-stop,4.724781,49.4065820
394,Gambetta,Rue Gambetta,Vouziers,08490,Auto-stop,4.702439,49.3916646
395,Tchécoslovaquie,Terron,Vouziers,08490,Auto-stop,4.6954911,49.4524952
396,Forteresse,6  rue forteresse,Vouziers,08490,Auto-stop,4.6776179,49.4250258
397,Dora Levi,Rue verte,Vouziers,08490,Auto-stop,4.6976179,49.4030655
398,Fleuriste,Rue Bournizet,Vouziers,08490,Auto-stop,4.6944873,49.3970337
399,Prague,Terron,Vouziers,08490,Auto-stop,4.6956413,49.4525910
400,Boeufs,A l'angle de la rue Gambetta et de la rue des bufs,Vouziers,08490,Auto-stop,4.702357,49.3915114
401,Mont Blanc,Rue du Blanc Mont,Vouziers,08490,Auto-stop,4.6884135,49.3926081
402,Avetant,A l'angle de la rue Bournizet et de la rue Avetant,Vouziers,08490,Auto-stop,4.702261,49.3972900
403,Bournizet,Rue Bournizet,Vouziers,08490,Auto-stop,4.6945839,49.3971385
404,Aisne,Au 4  rue de lAisne,Vouziers,08490,Auto-stop,4.7069229,49.3997775
405,Rouyer,Blaise,Vouziers,08490,Auto-stop,4.6558981,49.3901709
406,De Gaulle,A la fin de la rue de Condé et du début de l'avenue Charles de Gaulle,Vouziers,08490,Auto-stop,4.7019081,49.4050390
407,Plumes,Rue du Blanc Mont,Vouziers,08490,Auto-stop,4.6882846,49.3916698
408,Rouya,Vrizy,Vouziers,08490,Auto-stop,4.6785486,49.4240280
409,Tribunal,Rue Gambetta,Vouziers,08490,Auto-stop,4.6998359,49.3957320
410,Drouot,A l'angle de la rue de la fusion et de la rue Paul Drouot,Vouziers,08490,Auto-stop,4.6962299,49.4015762
411,Port,Rue de lAisne,Vouziers,08490,Auto-stop,4.7065877,49.3997880
412,Théline,Route de Reims  Blaise,Vouziers,08490,Auto-stop,4.6542405,49.3921018
413,Vacances,Plac Jean Robic,Vouziers,08490,Auto-stop,4.699396,49.4128930
414,Heren,Vrizy,Vouziers,08490,Auto-stop,4.6763547,49.4256992
415,Bondon,Rue de Condé,Vouziers,08490,Auto-stop,4.7023274,49.3996857
416,Campanules,A langle de lavenue Charles de Gaulle et de la rue des campanules,Vouziers,08490,Auto-stop,4.7011853,49.4069180
417,Presse,A langle rue de la briqueterie et d'un chemin privé,Vouziers,08490,Auto-stop,4.679457,49.3951250
418,Reims,A langle de la route de Reims et du chemin de Rouge côte  Blaise,Vouziers,08490,Auto-stop,4.6544551,49.3922677
419,Aigues-vives - Sortie,Avenue du Huit Mai 1945,Aigues-Vives,09002,Auto-stop,1.878552,42.9952440
420,Eglise,La Grand Rue,La Bastide-de-Bousignac,09039,Auto-stop,1.885944,43.0543360
421,Côtes,Office du Tourisme,La Bastide-de-Sérou,09042,Auto-stop,1.4333776,43.0115777
422,Stade,488 Roquebrune,La Bastide-de-Sérou,09042,Auto-stop,1.4257544,43.0095899
423,Arrêt de bus Ségalas,Bus Ariège Durban Ségalas,La Bastide-de-Sérou,09042,Auto-stop,1.373876,43.0171655
424,Place Pierre et Marie Curie,Avenue du 11 novembre 1918,La Bastide-sur-l'Hers,09043,Auto-stop,1.9065517,42.9551426
425,Place Del Rey,Le village,Belloc,09048,Auto-stop,1.931479,43.0132160
426,Embranchement D11/D117,101 Le Chateau Et La Grange,Cadarcet,09071,Auto-stop,1.51338,43.0106242
427,Arrêt de bus (côté village),Bus Ariège Cadarcet,Cadarcet,09071,Auto-stop,1.4946879,43.0075426
428,Abribus,Bus Ariège Cadarcet,Cadarcet,09071,Auto-stop,1.4938686,43.0072170
429,Embranchement D11/D117,Ruisseau d'Aujole,Cadarcet,09071,Auto-stop,1.5136132,43.0102424
430,Place de l'Eglise,148 Place De lEglise,Castelnau-Durban,09082,Auto-stop,1.3403844,43.0001722
431,Aire des Platanes,148 Place De lEglise,Castelnau-Durban,09082,Auto-stop,1.3400721,43.0000754
432,Dun,Rue des Pyrénées,Dun,09107,Auto-stop,1.800106,43.0280630
433,Village,2 Chemin De Francou,Durban-sur-Arize,09108,Auto-stop,1.3436313,43.0199103
434,Ségalas,12 Le Carrerot,Durban-sur-Arize,09108,Auto-stop,1.3700623,43.0153493
435,Relais Vert Angle D33 D3,angle D33 D3,ENCOURTIECH,09110,Parking,1.177063,42.95658
436,Place de la Mairie,Avenue de la mairie,Esclagne,09115,Auto-stop,1.848315,42.9808990
437,Place du Praxinabel,Avenue Mathil,Léran,09161,Auto-stop,1.910451,42.9875546
438,Avenue Saint-Roch,Avenue Saint-Roch,Léran,09161,Auto-stop,1.908123,42.9888590
439,Pont,27 Lieu Dit La Baure,Lescure,09164,Auto-stop,1.2353218,43.0001453
440,Croisement D117/D119,Bus Ariège Lescure,Lescure,09164,Auto-stop,1.2344412,43.0002925
441,Arrêt de bus,Bus Ariège Montels,Montels,09203,Auto-stop,1.4738577,43.0066230
442,Abribus (côté village),Bus Ariège Montels,Montels,09203,Auto-stop,1.4733509,43.0065570
443,Aire de covoiturage de Montjoie,D627,MONTJOIE EN COUSERANS,09209,Aire de covoiturage,1.159709,42.992903
444,Aire de covoiturage,Aire de covoiturage de Montjoie,Montjoie-en-Couserans,09209,Auto-stop,1.159757,42.9929771
445,Village,59 Rue De La Mairie,Montjoie-en-Couserans,09209,Auto-stop,1.1596742,43.0010526
446,Mairie,Route de Limoux,Moulin-Neuf,09213,Auto-stop,1.9444561,43.0742784
447,Grand' Rue,Grand'Rue,Le Peyrat,09229,Auto-stop,1.9184715,42.9565050
448,Parking Rue Nationale Rond Point D117E,D117E,PRAT BONREPAUX,09235,Parking,1.028528,43.032509
449,En face Abri bus,Rue Juliette Giret,Rieucros,09244,Auto-stop,1.763778,43.0787080
450,Arrêt de bus,Bus Ariège Rimont,Rimont,09246,Auto-stop,1.2794527,42.9945145
451,Route de la Tranchée,11 Avenue De La Resistance,Rimont,09246,Auto-stop,1.2806275,42.9938004
452,DEFA,5 Avenue de la Résistance,Saint-Girons,09261,Auto-stop,1.1445411,42.9795294
453,Foirail,42 Boulevard Du Général De Gaulle,Saint-Girons,09261,Auto-stop,1.1508415,42.9812185
454,Gare,Bus SNCF Gare Saint-Girons,Saint-Girons,09261,Auto-stop,1.1395432,42.9883469
455,Parking Le Crieu,D820B4B,SAVERDUN,09282,Parking,1.605379,43.224094
456,Aire de covoiturage de Kercabanac,D3,SOULAN,09301,Aire de covoiturage,1.214777,42.909095
457,Parking Rond Point Intersection 29 D119,D29,LA TOUR DU CRIEU,09312,Parking,1.653904,43.098005
458,Parking covoiturage D0031,D0031,AIX VILLEMAUR PALIS,10003,Parking,3.730838,48.222096
459,Parking covoiturage D0374,D0374,AUXON,10018,Parking,3.9183815,48.1031225
460,Parking D0004B,D0004B,BAR SUR AUBE,10033,Parking,4.7075607,48.2299391
461,Parking D0013,D0013,BAR SUR AUBE,10033,Parking,4.715208,48.2304895
462,Parking covoiturage D0072A,D0072A,BOUILLY,10051,Parking,3.99851,48.19473
463,Parking D0012,D0012,CHAMPIGNOL LEZ MONDEVILLE,10076,Parking,4.669801,48.136313
464,Parking covoiturage D0444,D0444,CHAOURCE,10080,Parking,4.142812,48.059664
465,Parking D0619,D0619,COURTERANGES,10110,Parking,4.24105,48.2614815
466,Parking D0011,D0011,DIENVILLE,10123,Parking,4.5322561,48.349037
467,Parking covoiturage D0023,D0023,ESTISSAC,10142,Parking,3.800577,48.273648
468,Parking D0439,D0439,GUMERY,10169,Parking,3.432926,48.452408
469,Parking D0018,D0018,JESSAINS,10178,Parking,4.5776543,48.2968746
470,Parking D0012B,D0012B,LONGCHAMP SUR AUJON,10203,Parking,4.832616,48.15078
471,Parking D0009,D0009,MAILLY LE CAMP,10216,Parking,4.215609,48.664207
472,Parking D0085,D0085,MOUSSEY,10260,Parking,4.097443,48.2121685
473,Parking D0060B,D0060B,LES NOES PRES TROYES,10265,Parking,4.0419535,48.3029485
474,Parking D0619,D0619,NOGENT SUR SEINE,10268,Parking,3.4781755,48.4882415
475,Parking D0919,D0919,NOGENT SUR SEINE,10268,Parking,3.5130855,48.4928405
476,Parking D0671,D0671,PLAINES ST LANGE,10288,Parking,4.483251,47.9937755
477,Parking D0056,D0056,PLANCY L ABBAYE,10289,Parking,3.9600325,48.5717405
478,Parking D0148,D0148,POUGY,10300,Parking,4.3579075,48.443182
479,Parking D0053,D0053,LA RIVIERE DE CORPS,10321,Parking,4.0300799,48.2876515
480,Parking D0041,D0041,ST ANDRE LES VERGERS,10333,Parking,4.051245,48.285055
481,Parking D0176,D0176,LA SAULSOTTE,10367,Parking,3.500565,48.5427795
482,Parking D0046,D0046,UNIENVILLE,10389,Parking,4.55046,48.3261635
483,Aire de covoiturage de Cailhau,D18,CAILHAU,11058,Aire de covoiturage,2.11684,43.13378
484,Aire de covoiturage du Rond-Point George Pompidou,D6113,CARCASSONNE,11069,Aire de covoiturage,2.33082,43.22703
485,Parking de covoiturage de Castelnaudary,A61 Sortie 21 Castelnaudary,CASTELNAUDARY,11076,Aire de covoiturage,1.951646,43.292797
486,Aire de covoiturage Maison de La Montagne Noire,D118,CAUDEBRONDE,11079,Aire de covoiturage,2.30058,43.36722
487,SPAR,rue Isabelle d'Aragon,FITOU,11144,Aire de covoiturage,2.993649,42.894984
488,Aire de covoiturage de Lézignan-Corbiéres,D611,LEZIGNAN CORBIERES,11203,Aire de covoiturage,2.74114,43.17289
489,Aire de covoiturage de Luc-Sur-Aude,D118,LUC SUR AUDE,11209,Aire de covoiturage,2.26009,42.95851
490,Aire de covoiturage de Narbonne,D6009,NARBONNE,11262,Aire de covoiturage,2.98888,43.16498
491,Aire de covoiturage de Salles-Sur-L'Hers,D625,SALLES SUR L HERS,11371,Aire de covoiturage,1.78192,43.29523
492,Aire de covoiturage de Villemoustaussou,D118,VILLEMOUSTAUSSOU,11429,Aire de covoiturage,2.38196,43.24309
493,Aire de la Gamasse,Croisement RD29-A7,AGUESSAC,12002,Parking,3.038912,44.177543
494,La Borie Sèche,Départementale 809,Aguessac,12002,Auto-stop,3.08602,44.1640300
495,Place du Murier,Avenue des Causses,Aguessac,12002,Auto-stop,3.097955,44.1536000
496,Route des Gorges du Tarn,Route des Gorges du Tarn,Aguessac,12002,Auto-stop,3.10028,44.1577900
497,Pharmacie,Avenue des Causses,Aguessac,12002,Auto-stop,3.09787,44.1542000
498,Passage voie ferrée,Avenue des Causses,Aguessac,12002,Auto-stop,3.09759,44.1575600
499,Carrefour de l'Etoile,Carrefour de l'Etoile 12300 ALMONT LES JUNIES,Almont-les-Junies,12004,Auto-stop,2.294099,44.6056770
500,Carrefour de l'Etoile,Carrefour de l'Etoile 12300 ALMONT LES JUNIES,Almont-les-Junies,12004,Auto-stop,2.2936,44.6053720
501,Arrêt du Lycée 3,Citée de la poudrière,Aubin,12013,Auto-stop,2.2428126,44.5305217
502,Les Lilas - Vers Firmi,Avenue des Myosotis,Aubin,12013,Auto-stop,2.2658552,44.5394390
503,Pont de Labro vers Aubin,Rue Jean Moulin,Aubin,12013,Auto-stop,2.254874,44.5282670
504,Pont de Labro vers Cransac,Avenue Jean Moulin,Aubin,12013,Auto-stop,2.25496,44.5281660
505,Place de la République - vers Aubin centre,Rue Jules Guesde,Aubin,12013,Auto-stop,2.2633983,44.5281354
506,Place de la République - Abribus TUB,Rue Jules Guesdes,Aubin,12013,Auto-stop,2.263645,44.5281300
507,Les Lilas - Vers Cérons,Avenue des Myosotis,Aubin,12013,Auto-stop,2.2657532,44.5395422
508,Cote d'Hymes,Croisement RD 840-,AUZITS,12016,Parking,2.354438,44.513992
509,Abribus du Département,Rue du château Bas,Boisse-Penchot,12028,Auto-stop,2.2059966,44.5905264
510,Entrée Bourg,Rue des deux Ponts,Boisse-Penchot,12028,Auto-stop,2.2029871,44.5844328
511,Ancienne poste,Rue de la Gilardie,Boisse-Penchot,12028,Auto-stop,2.2038615,44.5856057
512,Intersection après la gare,Saint-Matin,Bouillac,12030,Auto-stop,2.1596676,44.5706960
513,Aire de covoiturage de Curlande Cd12,Déviation de Curlande,BOZOULS,12033,Aire de covoiturage,2.680768,44.436836
514,Le Viala du Dourdou,Le Viala du Dourdou,Calmels-et-le-Viala,12042,Auto-stop,2.7518784,43.9460593
515,La Borie,La Borie,Calmels-et-le-Viala,12042,Auto-stop,2.7602952,43.9518738
516,Aire des Molinieres,Les Molinieres,CALMONT,12043,Aire de covoiturage,2.509183,44.285335
517,Parking Croisement 911-544E2,Croisement RD 544,LA CAPELLE BLEYS,12054,Parking,2.173771,44.307841
518,Parking D997 Le Poteau de Sauveterre,Poteau de Sauveterre,CASTANET,12059,Parking,2.324752,44.316144
519,Parking la Cavalerie,ZA Millau Larzac,LA CAVALERIE,12063,Parking,3.142061,44.016654
520,La Poste,Route du Grand Chemin,La Cavalerie,12063,Auto-stop,3.153912,44.0088673
521,Avenue du 122e Ri - direction centre,Avenue du 122e Ri,La Cavalerie,12063,Auto-stop,3.1679483,44.0092352
522,Echangeur D999,Route départementale 999,La Cavalerie,12063,Auto-stop,3.1383599,44.0113279
523,Embranchement Sainte Eulalie de Cernon,RD 277,La Cavalerie,12063,Auto-stop,3.1523418,44.0088953
524,Avenue du 122e Ri - direction Nant,Avenue du 122e Ri,La Cavalerie,12063,Auto-stop,3.172617,44.0097013
525,Echangeur D809,Route départementale 809,La Cavalerie,12063,Auto-stop,3.1415949,44.0135036
526,Rue basse - direction centre,Rue basse,La Cavalerie,12063,Auto-stop,3.1575353,44.0090332
527,Echangeur D809,Route départementale 809,La Cavalerie,12063,Auto-stop,3.1412123,44.0136554
528,Place de la Mairie - direction Nant,Place de la Mairie,La Cavalerie,12063,Auto-stop,3.1582016,44.0089618
529,ZA Millau Larzac,Route de Millau,La Cavalerie,12063,Auto-stop,3.1495321,44.0142858
530,Pharmacie,Route de Millau,La Cavalerie,12063,Auto-stop,3.1535017,44.0095342
531,Echangeur D999,Route départementale 999,La Cavalerie,12063,Auto-stop,3.1388905,44.0114345
532,Panat,Panat,Clairvaux-d'Aveyron,12066,Auto-stop,2.427265,44.4309530
533,Mairie,avenue de la tour,Clairvaux-d'Aveyron,12066,Auto-stop,2.4110125,44.4277641
534,Arrêt de la Tour,avenue de la Tour,Clairvaux-d'Aveyron,12066,Auto-stop,2.4109749,44.4269596
535,Bruéjouls,Place de la paix Bruéjouls,Clairvaux-d'Aveyron,12066,Auto-stop,2.4206899,44.4142011
536,Bruéjouls,Place du Mansois Bruéjouls,Clairvaux-d'Aveyron,12066,Auto-stop,2.4202285,44.4130515
537,Le Poteau de Colombies,Poteau de Colombies,COLOMBIES,12068,Parking,2.348287,44.315909
538,Pailhas dir. Gorges du Tarn,Route de Pailhas,Compeyre,12070,Auto-stop,3.11888,44.1682000
539,Compeyre,Rue de la Coste,Compeyre,12070,Auto-stop,3.09923,44.1612500
540,Le Mas dir. Millau,Route du Lemencon,Compeyre,12070,Auto-stop,3.1064,44.1590800
541,Le Mas dir. gorges,Route du Lemencon,Compeyre,12070,Auto-stop,3.1057,44.1588300
542,Pailhas dir. Millau,Route de Pailhas,Compeyre,12070,Auto-stop,3.11617,44.1678000
543,Comprégnac dir. Millau,Départementale 41,Comprégnac,12072,Auto-stop,2.96347,44.0857000
544,Peyre dir. Comprégnac,Rue de la callade du Tarn,Comprégnac,12072,Auto-stop,2.997544,44.0900000
545,Compégnac dir. St Rome,Route de la pierre blanche,Comprégnac,12072,Auto-stop,2.959,44.0831750
546,Peyre dir. Millau,Départementale 41,Comprégnac,12072,Auto-stop,3.00078,44.0914100
547,Parking D82 Chemin de L'abbaye,Chemin de L'Abbaye,COMPS LA GRAND VILLE,12073,Parking,2.565642,44.233621
548,Saint Cyprien école,Rue de la croix d'Issalys Saint Cyprien,Conques-en-Rouergue,12076,Auto-stop,2.408683,44.5467090
549,Place de l'étoile,place de l'étoile,Conques-en-Rouergue,12076,Auto-stop,2.3941146,44.5986748
550,Noailhac,Noailhac,Conques-en-Rouergue,12076,Auto-stop,2.3744164,44.5662059
551,Conques haut,D 42,Conques-en-Rouergue,12076,Auto-stop,2.402728,44.5992650
552,Saint Cyprien Route de Rodez,Route de Rodez,Conques-en-Rouergue,12076,Auto-stop,2.41004,44.5457920
553,Conques faubourg,Parking du molin neuf le faubourg,Conques-en-Rouergue,12076,Auto-stop,2.392911,44.5987140
554,Saint Cyprien Parking Régis,Rue des Canals Saint Cyprien,Conques-en-Rouergue,12076,Auto-stop,2.411145,44.5457040
555,Grand Vabre Mairie,les landes,Conques-en-Rouergue,12076,Auto-stop,2.358291,44.6292281
556,Saint Cyprien Route de Rodez,Route de Rodez Saint Cyprien,Conques-en-Rouergue,12076,Auto-stop,2.410303,44.5473670
557,Grand Vabre école,les landes Grand Vabre,Conques-en-Rouergue,12076,Auto-stop,2.358407,44.6291070
558,Parking les Places D65,Les Places,CORNUS,12077,Parking,3.21341,43.949513
559,Avenue Louis Alexis Delmas,Avenue Louis Alexis Delmas,Cornus,12077,Auto-stop,3.1787585,43.9006644
560,Rue du quai,Rue du quai,Cornus,12077,Auto-stop,3.1784539,43.9034472
561,Rond point des places,Route départementale 65,Cornus,12077,Auto-stop,3.2131194,43.9487766
562,Supérette Utile,Route de Montclar,Coupiac,12080,Auto-stop,2.58629,43.9545200
563,Boulangerie,Route du clos le bourg,Coupiac,12080,Auto-stop,2.58019,43.9542800
564,Grand parking du centre,Avenue Raymond Bel,Coupiac,12080,Auto-stop,2.58191,43.9545400
565,La Treille,Avenue Jean Moulin,Cransac,12083,Auto-stop,2.277431,44.5253190
566,Maison de santé du Gua,Avenue du 19 Mars 1962,Cransac,12083,Auto-stop,2.268087,44.5267380
567,Cransac Centre - La Poste,Avenue Jean Jaurès,Cransac,12083,Auto-stop,2.282871,44.5256590
568,Cransac Centre - Mairie,Avenue Jean Jaures,Cransac,12083,Auto-stop,2.2824098,44.5256801
569,Le Tulipier,Rue du Général Artous,Cransac,12083,Auto-stop,2.281267,44.5250390
570,Place la treille - Direction Cransac Centre,Avenue Jean Moulin,Cransac,12083,Auto-stop,2.277689,44.5252690
571,Rond-point Leclerc,Départementale 992,Creissels,12084,Auto-stop,3.04239,44.0818000
572,Raujolles,Départementale 992,Creissels,12084,Auto-stop,3.04656,44.0824000
573,Raujolles bis,Boulevard Raymond VII,Creissels,12084,Auto-stop,3.04599,44.0818000
574,Place du 19 mars,Avenues des comtes d'Armagnac,Creissels,12084,Auto-stop,3.06137,44.0854400
575,La poste,Avenues des comtes d'Armagnac,Creissels,12084,Auto-stop,3.06054,44.0854200
576,Charles de Gaulle,Avenue Charles de Gaulle,Creissels,12084,Auto-stop,3.067618,44.0896000
577,Abribus,Départementale 512,La Cresse,12086,Auto-stop,3.12806,44.1779000
578,Cimetière,Départementale 187,La Cresse,12086,Auto-stop,3.1305,44.1762000
579,Les Estaques,Route de Flagnac - Côtes des Estaques,Decazeville,12089,Auto-stop,2.244392,44.5760100
580,Avenue Adam Grange,Avenue Victor Hugo,Decazeville,12089,Auto-stop,2.238475,44.5628860
581,Nantuech,Côte des Estaques,Decazeville,12089,Auto-stop,2.243909,44.5743820
582,Miramont,Rue de Miramont,Decazeville,12089,Auto-stop,2.25172,44.5537430
583,Fontvergnes,Rond point de Fontvergnes,Decazeville,12089,Auto-stop,2.26578,44.5569310
584,Fontvergnes,rond point Fontvergnes,Decazeville,12089,Auto-stop,2.2642029,44.5572006
585,Gendarmerie,Rond point Gendarmerie,Decazeville,12089,Auto-stop,2.255121,44.5606445
586,Point de vue - Les Estaques,Les Estaques,Decazeville,12089,Auto-stop,2.2439201,44.5771884
587,La Vitarelle,Rond Point Vitarelle,Decazeville,12089,Auto-stop,2.248308,44.5627940
588,Aire du Pas,Le Pas,DRUELLE,12090,Aire de covoiturage,2.451627,44.38001
589,Parking Rodiez D920,Avenue de Rodiez,ENTRAYGUES SUR TRUYERE,12094,Parking,2.571188,44.638424
590,Cerles,Rue Jean moulin,Firmi,12100,Auto-stop,2.319499,44.5346000
591,Château du Claux - Dir Decazeville,34 Avenue du 10 Août 1944,Firmi,12100,Auto-stop,2.3278625,44.5278944
592,Château du Claux,26 Avenue du 10 août,Firmi,12100,Auto-stop,2.3266501,44.5285140
593,Puy de Wolf,RD 840,Firmi,12100,Auto-stop,2.3029663,44.5460782
594,Parking Flagnac,Croisement D963-D508,FLAGNAC,12101,Parking,2.243041975,44.60498366
595,Ecole d'Agnac,Route de Saint Jacques - Agnac,Flagnac,12101,Auto-stop,2.2717239,44.5741640
596,Abris bus - Déviation Flagnac,134 Route de la Prade,Flagnac,12101,Auto-stop,2.2498171,44.6068918
597,Ecole d'Agnac,Route de Saint Jacques - Agnac,Flagnac,12101,Auto-stop,2.272153,44.5742400
598,Parking Causse-et-Diége D922,Gelles,FOISSAC,12104,Parking,2.029211,44.513677
599,Parking D922 La Fouillade,Bourg de La Fouillade,LA FOUILLADE,12105,Parking,2.040481,44.228511
600,Croisement route nationale Grand rue,route nationale,L'Hospitalet-du-Larzac,12115,Auto-stop,3.196625,43.9732600
601,Place des cygnes,Place des cygnes,L'Hospitalet-du-Larzac,12115,Auto-stop,3.193474,43.9734230
602,Le Couderc,Avenue Paul Ramadier,Livinhac-le-Haut,12130,Auto-stop,2.2282452,44.5922493
603,Paul Ramadier,Avenue Paul Ramadier,Livinhac-le-Haut,12130,Auto-stop,2.232381,44.5996310
604,La Lande,Rue François Fabié,Livinhac-le-Haut,12130,Auto-stop,2.236383,44.5938308
605,Aire de Maleville,Croisement RD 539,MALEVILLE,12136,Parking,2.090396,44.405197
606,Marcillac Route de Rodez,Rotre de Rodez,Marcillac-Vallon,12138,Auto-stop,2.465503,44.4728110
607,Route de Rodez aire de covoiturage,Route de Rodez,Marcillac-Vallon,12138,Auto-stop,2.465529,44.4714220
608,Av Gustave Bessière,av Gustave Bessière,Marcillac-Vallon,12138,Auto-stop,2.461152,44.4745150
609,Maison de la Communauté des Communes/ centre de secours,rue Gustave Bessière,Marcillac-Vallon,12138,Auto-stop,2.455503,44.4767650
610,Mairie,Le Bourg,Martrin,12141,Auto-stop,2.62067,43.9387200
611,Sortie Coupiac,Départementale 90,Martrin,12141,Auto-stop,2.61848,43.9396000
612,Mayran,Croisement RD 285,MAYRAN,12142,Parking,2.365688,44.399167
613,Aire de St Germain,St Germain,MILLAU,12145,Parking,3.031685,44.133401
614,Millau plage,Giratoire du confluent,Millau,12145,Auto-stop,3.0886926,44.1036870
615,Forêt de cade,Route du Causse Noir,Millau,12145,Auto-stop,3.1123263,44.1189128
616,Pouncho d'Agast,Giratoire du confluent,Millau,12145,Auto-stop,3.089543,44.1035050
617,Av. Aigoual,Avenue de l'Aigoual,Millau,12145,Auto-stop,3.091123,44.1027950
618,Chemin des Bouysses,Avenue de l'Aigoual,Millau,12145,Auto-stop,3.1042975,44.1006939
619,Le Crès,Route de Cahors,Millau,12145,Auto-stop,3.0661377,44.1168500
620,Giratoire du Larzac,Avenue du Languedoc,Millau,12145,Auto-stop,3.08236,44.0913000
621,Chayran,Avenue Edouard Alfred Martel,Millau,12145,Auto-stop,3.086343,44.1190030
622,Hôpital du Larzac,D809,Millau,12145,Auto-stop,3.1209849,44.0799410
623,Massebiau,Route de Millau à Nant,Millau,12145,Auto-stop,3.1261334,44.1016964
624,Boulevard J. Gabriac,Boulevard Jean Gabriac,Millau,12145,Auto-stop,3.07262,44.0935225
625,Avenue de Guyenne,Avenue de Guyenne,Millau,12145,Auto-stop,3.07283,44.0908000
626,Puech d'Andan,Boulevard du Puech d'Andan,Millau,12145,Auto-stop,3.083269,44.1162920
627,Le Mona,Route de Millau à Nant,Millau,12145,Auto-stop,3.1382355,44.1087793
628,Lycée/Hôpital,Boulevard de Bad Salzuflen,Millau,12145,Auto-stop,3.0580818,44.0941254
629,Atterissage parapente,Avenue Millau Plage,Millau,12145,Auto-stop,3.0873096,44.1153658
630,Saint-Estève/Le Golf,Avenue de Millau Plage,Millau,12145,Auto-stop,3.0863,44.1132519
631,Parking D921 Montpeyroux,Croisement RD 70 St Remy,MONTPEYROUX,12156,Parking,2.817685,44.622863
632,Aire de Laubigue,Juste aprés la sortie D192,MOSTUEJOULS,12160,Parking,3.189076,44.198124
633,Mostuéjouls,Rue des jardins,Mostuéjouls,12160,Auto-stop,3.184,44.2022800
634,Liaucous,Départementale 192,Mostuéjouls,12160,Auto-stop,3.193,44.2030800
635,Arrêt relais,Départementale 907,Mostuéjouls,12160,Auto-stop,3.189348,44.1979700
636,Mairie Muret le Chateau,le bourg,Muret-le-Château,12165,Auto-stop,2.573703,44.4940330
637,les Espeyroux D13,Les Espeyroux,Muret-le-Château,12165,Auto-stop,2.5649,44.4888370
638,Les Espeyroux D 227,Les Espeyroux,Muret-le-Château,12165,Auto-stop,2.563258,44.4864030
639,Le Causse,Le Causse,Muret-le-Château,12165,Auto-stop,2.56836,44.4790080
640,Les Boutets,Les Boutets,Muret-le-Château,12165,Auto-stop,2.553141,44.5010970
641,Les Liquisses Basses,Route Départementale 999,Nant,12168,Auto-stop,3.251164,44.0267640
642,Les Liquisses Hautes,Les Liquisses Hautes - Route départementale 999,Nant,12168,Auto-stop,3.2440971,44.0256897
643,Nant centre - direction Millau,Route neuve,Nant,12168,Auto-stop,3.3018048,44.0228963
644,Piscine,Rue du Faubourg Bas,Nant,12168,Auto-stop,3.3043866,44.0200135
645,Route de Millau,Route de Millau,Nant,12168,Auto-stop,3.299901,44.0240980
646,Chemin des Noyers,Route de la Mouline,Nant,12168,Auto-stop,3.304635,44.0193789
647,Nant centre,Route neuve,Nant,12168,Auto-stop,3.301635,44.0228460
648,Les Liquisses Basses,Route départementale 999,Nant,12168,Auto-stop,3.251247,44.0268970
649,Les Liquisses Hautes,Les Liquisses Hautes - Route départementale 999,Nant,12168,Auto-stop,3.2439382,44.0257705
650,Route des Liquisses,Route des Liquisses,Nant,12168,Auto-stop,3.295656,44.0230890
651,Parking route du chéteau D568,Croisement 901-568 é cété d'Hostellerie de Fontanges,ONET LE CHATEAU,12176,Parking,2.563693601,44.3788943
652,Aire de la Croix blanche,La Croix Blanche,ONET LE CHATEAU,12176,Parking,2.52149,44.385137
653,Aire du Pont de PALMAS,Croisement RD 602,PALMAS D AVEYRON,12177,Parking,2.836789,44.398314
654,Maison de la cerise,Route de Paulhe,Paulhe,12178,Auto-stop,3.102448,44.1513000
655,Arrêt de bus,Route de Paulhe,Paulhe,12178,Auto-stop,3.10271,44.1511050
656,Le Théron - Carbassas,Route de Millau plage,Paulhe,12178,Auto-stop,3.10304,44.1425000
657,Peyreleau,Le Bourg,Peyreleau,12180,Auto-stop,3.20845,44.1880400
658,Point Info,Avenue de Curvalle,Plaisance,12183,Auto-stop,2.54616,43.9269500
659,Mairie,12 Route de Coupiac,Plaisance,12183,Auto-stop,2.54802,43.9282000
660,Aire des Rougier D32,Croisement RD 32,REBOURGUIL,12195,Parking,2.756709,43.870337
661,Parking Station de service Avia - Rebourguil,Parc d'activité Saint-Pierre - D999,REBOURGUIL,12195,Parking,2.77644,43.875459
662,Le Bourg,Route du Bourg,Rivière-sur-Tarn,12200,Auto-stop,3.13262,44.2223500
663,Fontaneilles,Route de Fontaneilles,Rivière-sur-Tarn,12200,Auto-stop,3.12949,44.1984000
664,Place de la Fontaine,Route des Gorges du Tarn,Rivière-sur-Tarn,12200,Auto-stop,3.13194,44.1883500
665,Route de Millau,Route de Millau,Rivière-sur-Tarn,12200,Auto-stop,3.13012,44.1879000
666,Boyne dir.Millau,Route de Boyne,Rivière-sur-Tarn,12200,Auto-stop,3.15848,44.2036450
667,Boyne Auberge des gorges au viaduc,Route de Boyne,Rivière-sur-Tarn,12200,Auto-stop,3.15953,44.2025000
668,Avenue de Lauras,31 Avenue de Lauras,Roquefort-sur-Soulzon,12203,Auto-stop,2.986958,43.9781870
669,Lauras,Avenue de Moussac,Roquefort-sur-Soulzon,12203,Auto-stop,2.9613268,43.9746664
670,Lauras,Avenue de Moussac,Roquefort-sur-Soulzon,12203,Auto-stop,2.9613697,43.9731299
671,Place de l'Eglise,Place de l'Eglise,Roquefort-sur-Soulzon,12203,Auto-stop,2.990241,43.9758901
672,Office de Tourisme,45 Avenue de Lauras  Abribus Office de Tourisme,Roquefort-sur-Soulzon,12203,Auto-stop,2.9819262,43.9808892
673,Pierrefiche du Larzac,Le Bourg,La Roque-Sainte-Marguerite,12204,Auto-stop,3.21718,44.1078000
674,Pont de la Dourbie,Départementale 991,La Roque-Sainte-Marguerite,12204,Auto-stop,3.22156,44.1233000
675,Route des gorges de la Dourbie,Départementale 991,La Roque-Sainte-Marguerite,12204,Auto-stop,3.22633,44.1251500
676,Pierre fiche du Larzac,La Borie,La Roque-Sainte-Marguerite,12204,Auto-stop,3.2151,44.1043000
677,Aire du Dolmen,Croisement RD 250,ST AFFRIQUE,12208,Parking,2.935273,43.989919
678,Les Méjalies,Route de Couat,Saint-Affrique,12208,Auto-stop,2.8925333,43.9452446
679,Boulevard de la République,Boulevard de la République  Croisement Boulevard Victor Hugo,Saint-Affrique,12208,Auto-stop,2.887126,43.9581900
680,Lycée Jean Jaurès,Avenue Jean Jaurès,Saint-Affrique,12208,Auto-stop,2.89587,43.9491842
681,Gymnase,Rue des 12 Etoiles,Saint-Affrique,12208,Auto-stop,2.8939066,43.9509839
682,ZA Bourguet,Le Vern,Saint-Affrique,12208,Auto-stop,2.8571067,43.9552706
683,Stade Nautique Intercommunal,Boulevard de la Capelle,Saint-Affrique,12208,Auto-stop,2.8924046,43.9523433
684,Tiergues - Covoiturage,Croisement D250/D999,Saint-Affrique,12208,Auto-stop,2.9307065,43.9942306
685,Savignac,Route de Bournac,Saint-Affrique,12208,Auto-stop,2.8362928,43.9600590
686,Gare Routière,Boulevard Aristide Briand  12400 Saint-Affrique,Saint-Affrique,12208,Auto-stop,2.881898,43.9567993
687,Centre Hospitalier,Avenue Lucien Galtier,Saint-Affrique,12208,Auto-stop,2.8754691,43.9572343
688,ZA Bourguet,Le Vern,Saint-Affrique,12208,Auto-stop,2.8551433,43.9546682
689,Tiergues Giratoire,Tiergues,Saint-Affrique,12208,Auto-stop,2.9349552,43.9859250
690,Les Cazes,Boulevard de la Résistance,Saint-Affrique,12208,Auto-stop,2.877454,43.9584178
691,Gare Routière,Boulevard Aristide Briand  12400 Saint-Affrique,Saint-Affrique,12208,Auto-stop,2.881665,43.9570006
692,Centre Hospitalier,Avenue Lucien Galtier,Saint-Affrique,12208,Auto-stop,2.8750212,43.9572130
693,Tiergues Village,Tiergues,Saint-Affrique,12208,Auto-stop,2.9358778,43.9884878
694,Avenue Maurice Fournol,Avenue Maurice Fournol,Saint-Affrique,12208,Auto-stop,2.8932414,43.9548226
695,Boulevard de Verdun,Boulevard de Verdun  Après le croisement de la rue Paul Bert,Saint-Affrique,12208,Auto-stop,2.8831349,43.9580433
696,Lycée La Cazotte,Route de Bournac,Saint-Affrique,12208,Auto-stop,2.8521285,43.9582054
697,Vailhauzy,Route de Millau,Saint-Affrique,12208,Auto-stop,2.9228208,43.9530230
698,Boulevard Emile Borel,Boulevard Emile Borel,Saint-Affrique,12208,Auto-stop,2.892426,43.9551702
699,Les Cazes,Avenue Georges Pompidou  Croisement Rue des Roses,Saint-Affrique,12208,Auto-stop,2.8767727,43.9600821
700,Le Cambon,Le Cambon,Saint-Affrique,12208,Auto-stop,2.7887962,43.9646385
701,ZI des Cazes,Rue Jules Védrines  Croisement Av. G Pompidou,Saint-Affrique,12208,Auto-stop,2.8613768,43.9589778
702,Vendeloves,Vendeloves,Saint-Affrique,12208,Auto-stop,2.890633,43.9306053
703,Stade Nautique Intercommunal,Boulevard de la Capelle,Saint-Affrique,12208,Auto-stop,2.8922517,43.9522796
704,Saint-André-de-Vézines,Le Bourg,Saint-André-de-Vézines,12211,Auto-stop,3.2595,44.1514000
705,Arrêt de bus,Grande route,Saint-Beaulize,12212,Auto-stop,3.110109,43.8957670
706,Route de Saint Beaulize,Route de Saint Beaulize,Saint-Beaulize,12212,Auto-stop,3.1078201,43.8981939
707,Azinières - Chemin de Vayssede,RD 30,Saint-Beauzély,12213,Auto-stop,2.9869,44.1521000
708,Embranchement RD911,RD 30,Saint-Beauzély,12213,Auto-stop,3.00683,44.1532000
709,Avenue Déodat Alaus,Avenue Déodat Alaus,Saint-Beauzély,12213,Auto-stop,2.959,44.1672000
710,Route de Salles Curan,Avenue Déodat Alaus,Saint-Beauzély,12213,Auto-stop,2.9571,44.1627000
711,Azinières - D30,RD 30,Saint-Beauzély,12213,Auto-stop,2.9879,44.1517000
712,Pharmacie Saint christophe,Route de Decazeville,Saint-Christophe-Vallon,12215,Auto-stop,2.411676,44.4711040
713,Complexe sportif,Route de Rodez,Saint-Christophe-Vallon,12215,Auto-stop,2.416263,44.4658250
714,Zone d'activité du Vallon,Route de Rodez,Saint-Christophe-Vallon,12215,Auto-stop,2.415951,44.4659700
715,Mairie Saint Christophe,Route de Rodez,Saint-Christophe-Vallon,12215,Auto-stop,2.412046,44.4706020
716,Lunel,Place,Saint-Félix-de-Lunel,12221,Auto-stop,2.487566,44.5550350
717,Saint-Félix de Sorgues,Le Bourg  12400 Saint-Félix-de-Sorgues,Saint-Félix-de-Sorgues,12222,Auto-stop,2.9872912,43.8827248
718,Centre,Rue du Mas de Guillou,Saint-Georges-de-Luzençon,12225,Auto-stop,2.9833928,44.0636340
719,Centre,Avenue des Près de Vabres,Saint-Georges-de-Luzençon,12225,Auto-stop,2.9855,44.0662500
720,Saint-Izaire - Aire de Covoiturage,La Planque,Saint-Izaire,12228,Auto-stop,2.7210269,43.9731004
721,Faveyrolles - Aire de Covoiturage,Faveyrolles,Saint-Izaire,12228,Auto-stop,2.6945589,43.9581889
722,Croisement D200/D902,Le Batut,Saint-Izaire,12228,Auto-stop,2.6592825,43.9874060
723,Saint-Jean d'Alcapiès,Le Bourg  Croisement rue Jean Moulin,Saint-Jean-d'Alcapiès,12229,Auto-stop,2.9722605,43.9516204
724,Saint-Jean,D293,Saint-Jean-d'Alcapiès,12229,Auto-stop,2.9732744,43.9512342
725,Place du manège,Place neuve,Saint-Jean-du-Bruel,12231,Auto-stop,3.358789,44.0234510
726,Grand Rue,Grand Rue,Saint-Jean-du-Bruel,12231,Auto-stop,3.360259,44.0224530
727,Saint Paul des Fonts,Route départementale 500,Saint-Jean-et-Saint-Paul,12232,Auto-stop,3.0663391,43.9302068
728,Saint Jean d'Alcas,Saint Jean d'Alcas  Route départementale 516,Saint-Jean-et-Saint-Paul,12232,Auto-stop,3.0077905,43.9283930
729,Massergues,Route départementale 93,Saint-Jean-et-Saint-Paul,12232,Auto-stop,3.0017303,43.9439960
730,Route D93,Route départementale 93,Saint-Jean-et-Saint-Paul,12232,Auto-stop,3.0517148,43.9262875
731,Aire du Viaur D902,Aire du Viaur,STE JULIETTE SUR VIAUR,12234,Parking,2.538522,44.216004
732,Épicerie de Port d'Agrès,Port d'Agres,Saint-Parthem,12240,Auto-stop,2.2550459,44.6140084
733,Sortie Saint Parthem,Carrefour RD 42,Saint-Parthem,12240,Auto-stop,2.317069,44.6266220
734,Restaurant Port d'Agrès,Port d'Agrès,Saint-Parthem,12240,Auto-stop,2.255089,44.6138880
735,Centre-Ville,Avenue de la République,Saint-Rome-de-Cernon,12243,Auto-stop,2.9637462,44.0117823
736,Salle des Fêtes,Avenue de Millau,Saint-Rome-de-Cernon,12243,Auto-stop,2.9651248,44.0128549
737,Salle des Fêtes,Avenue de Millau,Saint-Rome-de-Cernon,12243,Auto-stop,2.9649263,44.0128664
738,Centre-Ville,Avenue de la République,Saint-Rome-de-Cernon,12243,Auto-stop,2.9638534,44.0120177
739,Parking station de service Garage Courdy,Saint-Férréols Haut,ST ROME DE TARN,12244,Parking,2.908273,44.042188
740,Saint Julien de Piganiol,Route de Decazeville au Cantal,Saint-Santin,12246,Auto-stop,2.2539569,44.6522476
741,Abris Mas Pourquet,Mas Pourquet,Saint-Santin,12246,Auto-stop,2.2450951,44.6379485
742,Bourg de Saint Santin,Le Bourg,Saint-Santin,12246,Auto-stop,2.216422,44.6497770
743,Saveyrac,Face au croisement,SALLES LA SOURCE,12254,Parking,2.470475,44.423433
744,Aéroport Rodez-Aveyron,aéroport Rodez-Aveyron Route de Decazeville,Salles-la-Source,12254,Auto-stop,2.4832926,44.4111241
745,Cadayrac,D 27,Salles-la-Source,12254,Auto-stop,2.5567637,44.4649581
746,le bourg,le bourg route de Rodez,Salles-la-Source,12254,Auto-stop,2.513423,44.4367910
747,Cadayrac,D 27,Salles-la-Source,12254,Auto-stop,2.55651,44.4650170
748,le bourg,le bourg route de Rodez,Salles-la-Source,12254,Auto-stop,2.513605,44.4368140
749,Aire de la Roziere,La Roziere Basse,LA SELVE,12267,Aire de covoiturage,2.533378,44.123831
750,Sénergue,route de Conques,Sénergues,12268,Auto-stop,2.4835,44.6053110
751,Sénergue le Ribatel,le ribatel,Sénergues,12268,Auto-stop,2.482352,44.6042410
752,Tournemire,Avenue Hipployte Puech,Tournemire,12282,Auto-stop,3.0175425,43.9704674
753,Parking rond point Silo de Vabres l'Abbaye,Silo,VABRES L ABBAYE,12286,Parking,2.837302,43.951383
754,Centre-Ville,Avenue du Dourdou,Vabres-l'Abbaye,12286,Auto-stop,2.838403,43.9464321
755,Centre-Ville,Avenue du Dourdou,Vabres-l'Abbaye,12286,Auto-stop,2.8383816,43.9462622
756,Silo - Aire de Covoiturage,La Salze,Vabres-l'Abbaye,12286,Auto-stop,2.8379041,43.9516345
757,Salmanac,Salmanac,Vabres-l'Abbaye,12286,Auto-stop,2.8221864,43.9252976
758,Nuces,D 840 Route de Rodez,Valady,12288,Auto-stop,2.441046,44.4404290
759,Nuces,Route de Rodez,Valady,12288,Auto-stop,2.440563,44.4411570
760,Valady,av du Pont de Tournemire,Valady,12288,Auto-stop,2.426219,44.4543840
761,Bel-Air de Lanuejouls,Bel-Air de Lanuejouls,VAUREILLES,12290,Aire de covoiturage,2.193008,44.432609
762,Lapeyre,Lapeyre,Versols-et-Lapeyre,12292,Auto-stop,2.9094465,43.9011726
763,Versols,Versols,Versols-et-Lapeyre,12292,Auto-stop,2.9438378,43.8943152
764,Aire des Vialettes,Rd29,VEZINS DE LEVEZOU,12294,Parking,2.91892,44.261131
765,Aire du Roucous,Le Roucous,VEZINS DE LEVEZOU,12294,Parking,2.914402,44.240788
766,Viala du Pas de Jaux,Route départementale 23,Viala-du-Pas-de-Jaux,12295,Auto-stop,3.0544287,43.9578143
767,Parking D24 Route de Toulonjac,Route de Toulonjac,VILLEFRANCHE DE ROUERGUE,12300,Parking,2.01417,44.373495
768,Gare SNCF,Avenue PAul ramadier,Viviez,12305,Auto-stop,2.217715,44.5567170
769,Viviez barrière,Intermarché,Viviez,12305,Auto-stop,2.2184069,44.5597578
770,Intermarché Viviez,Intermarché,Viviez,12305,Auto-stop,2.2183372,44.5596871
771,Viviez Bourg,Avenue Jean Jaures,Viviez,12305,Auto-stop,2.218471,44.5531390
772,Aire du Puech de Lauzeche,Puech De Lauzeche,CURAN,12307,Parking,2.875413,44.240365
773,Avenue Arc de Meyran,Avenue Arc de Meyran,Aix-en-Provence,13001,Parking,5.445,43.511
774,Parking Pharmacie du Pujol,D560,AURIOL,13007,Parking,5.648516,43.369287
775,Aire de Berre L'Etang (Rond Point D10 D113),D10-D113,BERRE L ETANG,13014,Aire de covoiturage,5.197111,43.525897
776,Aire de La Barque,D6-D96,FUVEAU,13040,Aire de covoiturage,5.538402,43.476744
777,Parking de covoiturage de Grans,A54 Sortie 14 Grans,GRANS,13044,Aire de covoiturage,5.085574,43.623455
778,Aire de Meyrargues,D556,MEYRARGUES,13059,Aire de covoiturage,5.495705,43.663113
779,Aire de Meyrargues Rd556 (Extension),D556,MEYRARGUES,13059,Aire de covoiturage,5.494959,43.663145
780,Parking Aire de Stationement Chemin de La Pourranque,D113,LES PENNES MIRABEAU,13071,Parking,5.298068,43.415103
781,Parking de covoiturage de La Bédoule,A50 Sortie 7 La Bédoule,ROQUEFORT-LA-BEDOULE,13085,Aire de covoiturage,5.593414,43.243545
782,Aire de Venelles,D96-D556,VENELLES,13113,Aire de covoiturage,5.496134,43.609266
783,Parc relais Côte de Nacre,Boulevard Becquerel,Caen,14118,Parking relais,-0.361774,49.210559
784,Parc relais Côte de Nacre,Boulevard Becquerel,Caen,14118,Parking relais,-0.361774,49.210559
785,Parking du Chéteau d'eau,D226,COLOMBELLES,14167,Parking,-0.291906095,49.19922977
786,Parking du SupermarchéBecocy,D512,CONDE EN NORMANDIE,14174,Parking,-0.563531933,48.85130404
787,Aire de covoiturage Coudray-Rabut,151 Route de Honfleur D579,COUDRAY RABUT,14185,Aire de covoiturage,0.187595535,49.2977389
788,Aire Hérouville Saint Clair Porte d'Angleterre,RN814,HEROUVILLE SAINT CLAIR,14327,Parking,-0.335847,49.191634
789,Aire Ifs La dronniére,RN158,IFS,14341,Parking,-0.337174,49.136966
790,Parc relais Jean Vilar,45 Avenue Jean Vilar,Ifs,14341,Parking relais,-0.350329,49.150590
791,Parking covoiturage Villers Bocage,D6,MAISONCELLES PELVEY,14389,Aire de covoiturage,-0.658822909,49.06688977
792,Aire Ouistreham Le Maresquier,RD515,OUISTREHAM,14488,Parking,-0.262502,49.263251
793,Parking du rond point,D675,SEULLINE,14579,Parking,-0.711063614,49.05213487
794,Aire de covoiturage de Guéron (Sortie 37),D572,ST LOUP HORS,14609,Aire de covoiturage,-0.722287401,49.25637257
795,Aire de covoiturage Falaise,D511,ST MARTIN DE MIEUX,14627,Aire de covoiturage,-0.218292872,48.88671785
796,Parking covoiturage Saint-Martin-des-Entrées,Rue de la Cartoucherie D33,ST MARTIN DES ENTREES,14630,Aire de covoiturage,-0.650534257,49.25138088
797,Covoiturage de Troarn,A13 Sortie 31,TROARN,14712,Sortie d'autoroute,-0.202558,49.1789984
798,Parking é cété du Campanile Vire,D55B,VIRE NORMANDIE,14762,Parking,-0.869746025,48.86725299
799,Aire de covoiturage d'Emplainadieu,RIS RD920,ARPAJON SUR CERE,15012,Aire de covoiturage,2.450414,44.884186
800,Aire de covoiturage d'Aurillac cété Sansac,RN122. aprés station essence,AURILLAC,15014,Aire de covoiturage,2.420675,44.907396
801,Aire de covoiturage de Lascanaux,RD120-RD18,AURILLAC,15014,Aire de covoiturage,2.425653,44.930951
802,Aire de covoiturage de Cayrols,Croisement RN122-RD51,CAYROLS,15030,Aire de covoiturage,2.23289,44.841353
803,Aire de covoiturage des Quatre Routes de Salers,RD922,DRUGEAC,15063,Aire de covoiturage,2.404676,45.13612
804,Aire de covoiturage de Giou-de-Mamou,RN122-RD58,GIOU DE MAMOU,15074,Aire de covoiturage,2.508465,44.926083
805,Aire de covoiturage de l'échangeur du Pont d'Orgon,RD120-RD653-RD2,LAROQUEBROU,15094,Aire de covoiturage,2.222572,44.975347
806,Aire de covoiturage de la Baraquette,RD922-RD3,MADIC,15111,Aire de covoiturage,2.469979,45.360779
807,Aire de covoiturage de St-Cernin,RD922-RD160,ST CERNIN,15175,Aire de covoiturage,2.429642,45.052264
808,Aire de covoiturage de St-Chamant,RD922-RD42,ST CHAMANT,15176,Aire de covoiturage,2.422911,45.090126
809,Aire de covoiturage de Ruynes-en-Margeride,RD74-bretelleA75,ST GEORGES,15188,Aire de covoiturage,3.169615,45.000927
810,Aire de covoiturage de Besse,RD922-RD42,ST MARTIN VALMEROUX,15202,Aire de covoiturage,2.402045,45.104695
811,Aire de covoiturage des Quatre Routes de Saignes,RD922-RD15,YDES,15265,Aire de covoiturage,2.463152,45.353551
812,Aire de covoiturage de Montméghe,RD120-RD922,YTRAC,15267,Aire de covoiturage,2.408459,44.936088
813,L'Oisillon,Ex station-service Shell - Avenue Félix Gaillard (D 910),Barbezieux-Saint-Hilaire,16028,Aire de covoiturage,-0.142626,45.48165
814,L'Avenue de L'Europe,Parking Intermarché - Avenue de l'Europe,Barbezieux-Saint-Hilaire,16028,Aire de covoiturage,-0.161995,45.47624
815,Le Fagnard,Giratoire RD674/RD731/RD20,Chalais,16073,Aire de covoiturage,0.035446,45.27298
816,Champniers - Pont de Combier,Echangeur nord Les Chauvauds - Giratoire N10-D910-D37,Champniers,16078,Aire de covoiturage,0.184775,45.71731
817,Chantebuse,Giratoire de Chante Buse,Chasseneuil-sur-Bonnieure,16085,Aire de covoiturage,0.467048,45.83213
818,La pointe à Rullaud,Aux abords carrefour RD731/RD149 Chemin de Treillis,Châteaubernard,16089,Aire de covoiturage,-0.328885,45.66764
819,La Trache,A proximité directe du giratoire RN 141 de la Trache le long de la RD149,Châteaubernard,16089,Aire de covoiturage,-0.293278,45.68026
820,Chenon - Maisons Rouges,Chemin de Bel Air,Chenon,16095,Aire de covoiturage,0.203251,45.93610
821,Crouin,Boulevard André Malraux,Cognac,16102,Aire de covoiturage,-0.350831,45.69314
822,Confolens - Lycée Emile Roux,Avenue du Général de Gaulle (D948),Confolens,16106,Aire de covoiturage,0.673277,46.00390
823,Terre Neuve,RD948_GIR_4,Confolens,16106,Aire de covoiturage,0.653382,46.02552
824,L'Échelle,Rue de la Clef d'Or (D 939),Dignac,16119,Aire de covoiturage,0.277379,45.55762
825,Édon - La Tonnelle du Parc,Les Justices (D 939),Édon,16125,Aire de covoiturage,0.364099,45.48901
826,Mons,RD941_GIR_0  Giratoire de Mons,Étagnac,16132,Aire de covoiturage,0.816801,45.88828
827,Chêne Vert,Giratoire de Chantalouette,Exideuil-sur-Vienne,16134,Aire de covoiturage,0.690787,45.87257
828,Brénat,D 37,Fléac,16138,Aire de covoiturage,0.072553,45.68471
829,LÉtang Genevreaux,"Lieu-dit ""L'Etang Genevreaux""",Fouquebrune,16143,Aire de covoiturage,0.179956,45.53535
830,Mainxe - Montagan,Echangeur de Montagan - Giratoire sud N141-D736,Mainxe-Gondeville,16153,Aire de covoiturage,-0.189338,45.66835
831,La Belloire,Échangeur nord-déviation de Jarnac « La Belloire » (D941/D194),Jarnac,16167,Aire de covoiturage,-0.139842,45.69258
832,Moulin à Vent,Echangeur sud de Mansle - Giratoire N10-D40,Maine-de-Boixe,16200,Aire de covoiturage,0.18456,45.86260
833,Marthon,"12, Rue des Écoles (D 4)",Marthon,16211,Aire de covoiturage,0.439021,45.61189
834,Mérignac,A proximité directe du giratoire RN 141,Mérignac,16216,Aire de covoiturage,-0.08585,45.69218
835,Reignac,Giratoire RN10/RD910/RD14,Reignac,16276,Aire de covoiturage,-0.174848,45.42764
836,La Bécasse,Echangeur de St-Projet,La Rochefoucauld-en-Angoumois,16281,Aire de covoiturage,0.344547,45.73613
837,Rouillac - Près de Lorret,"482, Route d'Aigre - Lieu-dit Lorret (carrefour D939/D736)",Rouillac,16286,Aire de covoiturage,-0.06291,45.77953
838,Roullet Le Berguille,"Echangeur de la N 10 / D 7 au lieu dit ""le Berguille""",Roullet-Saint-Estèphe,16287,Aire de covoiturage,0.03377,45.57490
839,Saint-Séverin - Le stade,Rue du Stade,Saint-Séverin,16350,Aire de covoiturage,0.249987,45.31398
840,Jaurès - Les planes,Les Planes - Rue de Royan (RN 141),Saint-Yrieix-sur-Charente,16358,Aire de covoiturage,0.12039,45.66791
841,Villesèche,Route de Saint-Jean-d'Angély,Saint-Yrieix-sur-Charente,16358,Aire de covoiturage,0.103644,45.69126
842,Torsac - Place blanche,Face au cimetière (D41),Torsac,16382,Aire de covoiturage,0.213767,45.56485
843,Aire de covoiturage d'Aigrefeuille Place du mai,6 Rue de la Poste. 17290 Aigrefeuille-d'Aunis,AIGREFEUILLE D AUNIS,17003,Aire de covoiturage,-0.936286,46.115006
844,Aire de covoiturage d'Aigrefeuille Stade,61 Rue du Vieux Fief. 17290 Aigrefeuille-d'Aunis,AIGREFEUILLE D AUNIS,17003,Aire de covoiturage,-0.943357,46.123345
845,Salle Communale,Avenue de Saintonge,Allas-Bocage,17005,Auto-stop,-0.492448,45.3842790
846,Mairie,Avenue de Saintonge,Allas-Bocage,17005,Auto-stop,-0.492968,45.3844740
847,Arrêt de bus coté école,Route de Jonzac,Allas-Champagne,17006,Auto-stop,-0.334301,45.4717530
848,RUE DES RAISES,5 rue des Raises,Andilly,17008,Auto-stop,-1.0244,46.2530300
849,Aire de covoiturage d'Angliers Echangeur,D109. 17540 Angliers,ANGLIERS,17009,Aire de covoiturage,-0.945902,46.225145
850,RUE DU MOULIN,14 Rue du moulin,Angliers,17009,Auto-stop,-0.957602,46.2142850
851,Aire de covoiturage d'Angoulins Paradis,Les Cadelis E. 17690 Angoulins,ANGOULINS,17010,Aire de covoiturage,-1.09308,46.104536
852,Aire de covoiturage d'Archiac Le Tonneau,100 Route de Cognac. 17520 Archiac,ARCHIAC,17016,Aire de covoiturage,-0.303478,45.528005
853,Garage,23 Route de Cognac,Archiac,17016,Auto-stop,-0.30309,45.5264490
854,MTL - Stade,Rue des Voituriers (entrée du Stade),Archiac,17016,Auto-stop,-0.303476,45.5244650
855,Place de la Mairie,Place de la Mairie,Archiac,17016,Auto-stop,-0.301615,45.5215770
856,Cabinet médical,Route de St Maigrin (entrée du lot. Les Acacias),Archiac,17016,Auto-stop,-0.300472,45.5173050
857,Rue de la part des anges,Route de Cognac,Archiac,17016,Auto-stop,-0.303969,45.5276820
858,Rue de Riveron,Rue de Riveron,Archiac,17016,Auto-stop,-0.304715,45.5206990
859,Aire de covoiturage d'Arvert l'Etrade,2 Ter Rue des Justices. 17530 Arvert,ARVERT,17021,Aire de covoiturage,-1.140648,45.756669
860,Aire de covoiturage du Stade,14 Route de Poitiers. 17470 Aulnay,AULNAY,17024,Aire de covoiturage,-0.354371,46.024441
861,Arrêt de bus,Rue Charles de Gaulle,Avy,17027,Auto-stop,-0.509512,45.5531410
862,Abri bus - Le Bourg,Rue de la Mairie,La Barde,17033,Auto-stop,-0.039957,45.1226480
863,Abri Bus - Chiron,Rue du Goulor,La Barde,17033,Auto-stop,-0.05343,45.1050610
864,Place du village,40 Av. Anne d'Autriche,Bedenac,17038,Auto-stop,-0.300835,45.1662790
865,Arrêt de bus,Mairie,Bedenac,17038,Auto-stop,-0.299281,45.1661610
866,Aire de covoiturage de Benon Echangeur,RN11. Les Quatre Routes. 17170 Benon,BENON,17041,Aire de covoiturage,-0.80858,46.220975
867,Aire de covoiturage de Beurlay Centre,6 Résidence du Moulin. 17250 Beurlay,BEURLAY,17045,Aire de covoiturage,-0.838496,45.861992
868,Arrêt de bus,D 143,Bois,17050,Auto-stop,-0.59746,45.4871100
869,Arrêt de bus sortie bourg,Route de Marcillac,Boisredon,17052,Auto-stop,-0.539537,45.3140510
870,Garage sortie bourg,Route de Mirambeau,Boisredon,17052,Auto-stop,-0.539955,45.3147500
871,Mairie,Route de Soubran,Boisredon,17052,Auto-stop,-0.538116,45.3150000
872,Salle polyvalente,6 rue Bois Charmant,Boscamnant,17055,Auto-stop,-0.068561,45.1975370
873,Mairie,50 route de Cognac,Bougneau,17056,Auto-stop,-0.513922,45.5965410
874,Garage,27 route de Cognac,Bougneau,17056,Auto-stop,-0.514528,45.5964960
875,Aire de covoiturage de Bourcefranc-le-Chapus Pont,Grand Fief de Sinche. 17560 Bourcefranc-le-Chapus,BOURCEFRANC LE CHAPUS,17058,Aire de covoiturage,-1.162467,45.846118
876,Aire de covoiturage de Boutenac-Touvent Mairie,44 Route Céte de Beauté. 17120 Boutenac-Touvent,BOUTENAC TOUVENT,17060,Aire de covoiturage,-0.755722,45.504361
877,CHOISY,D 114,Bussac-sur-Charente,17073,Auto-stop,-0.6321182,45.8072677
878,LES MAILLEAUX,ROUTE DU VAL DE CHARENTE,Bussac-sur-Charente,17073,Auto-stop,-0.6364258,45.8005943
879,LE PONTREAU,ROUTE DU VAL DE CHARENTE,Bussac-sur-Charente,17073,Auto-stop,-0.638595,45.7948995
880,ECOLE,ROUTE DU VAL DE CHARENTE,Bussac-sur-Charente,17073,Auto-stop,-0.6353958,45.7886685
881,LA CROIX,ROUTE DU VAL DE CHARENTE,Bussac-sur-Charente,17073,Auto-stop,-0.631639,45.7839710
882,Place du Champ de Foire,Place du Champ de Foire,Bussac-Forêt,17074,Auto-stop,-0.370311,45.2125690
883,Route de Blaye,2 route de Blaye,Bussac-Forêt,17074,Auto-stop,-0.370735,45.2119910
884,Route de St Yzan,12/14 Route de St Yzan,Bussac-Forêt,17074,Auto-stop,-0.369445,45.2106500
885,Vival,4 rue de la mairie,Bussac-Forêt,17074,Auto-stop,-0.369272,45.2121680
886,Route de la cimenterie,Route de la cimenterie,Bussac-Forêt,17074,Auto-stop,-0.367827,45.2139260
887,La République,20 rue de la république,Cercoux,17077,Auto-stop,-0.204605,45.1312250
888,La Boye,Arrêt de bus Rue de la Boye,Cercoux,17077,Auto-stop,-0.204413,45.1302830
889,La Métairie,6 route de la Métairie,Cercoux,17077,Auto-stop,-0.20832,45.1298460
890,Place du Bar-Boulangerie,Rue de la salle des fêtes,Chadenac,17078,Auto-stop,-0.44253,45.5418600
891,Arrêt de bus,Route de la cité Blanche Neige,Chadenac,17078,Auto-stop,-0.44262,45.5416300
892,Mairie,Rue du stade,Chadenac,17078,Auto-stop,-0.447174,45.5407580
893,Abri bus,Le Bourg - Au moulin à vent,Chamouillac,17081,Auto-stop,-0.46428,45.3143800
894,Arrêt de bus,Le Bourg,Chamouillac,17081,Auto-stop,-0.46513,45.3147400
895,Abri bus place de l'école,Impasse du Plantis,Champagnolles,17084,Auto-stop,-0.6361,45.5125200
896,Vival,Rue du vélodrome,Champagnolles,17084,Auto-stop,-0.63699,45.5118700
897,MAIRIE,ROUTE DE BURIE,La Chapelle-des-Pots,17089,Auto-stop,-0.541694,45.7598440
898,ROUTE DE MARANS,2 route de Marans,Charron,17091,Auto-stop,-1.087175,46.3052130
899,BAS DE LA LAISSE,13 rue de la Laisse,Charron,17091,Auto-stop,-1.107297,46.2950650
900,ROUTE DE VILLEDOUX,2 route de Villedoux,Charron,17091,Auto-stop,-1.087906,46.3048620
901,Impasse du Bourg,Route de Tugéras,Chartuzac,17092,Auto-stop,-0.41791,45.3392600
902,Mairie,Route de Tugéras,Chartuzac,17092,Auto-stop,-0.41931,45.3395600
903,Aire de covoiturage de Chatelaillon Le Haut-Rillon,Avenue du Haut Rillon. 17340 Chételaillon-Plage,CHATELAILLON PLAGE,17094,Aire de covoiturage,-1.079149,46.080525
904,Porche-halle,2 route des Halles,Chaunac,17096,Auto-stop,-0.357947,45.3592390
905,Chez Ballon - abribus,11 route de Jonzac,Chaunac,17096,Auto-stop,-0.356182,45.3621910
906,Arrêt de bus,Place Gallais,Chepniers,17099,Auto-stop,-0.308431,45.2568600
907,Arrêt de bus,Place de l'ancienne poste,Chepniers,17099,Auto-stop,-0.309479,45.2569370
908,Aire de covoiturage de Chermignac Les Tilleuls,10 Avenue du Littoral. 17460 Chermignac,CHERMIGNAC,17102,Aire de covoiturage,-0.675533,45.684884
909,Aire de covoiturage de Chevanceaux RN,D910. 17210 Chevanceaux,CHEVANCEAUX,17104,Aire de covoiturage,-0.238894,45.29498
910,SARL Fradon,22 Route de Libourne,Chevanceaux,17104,Auto-stop,-0.230525,45.3020510
911,MFR,74 Avenue de Paris,Chevanceaux,17104,Auto-stop,-0.233123,45.3032310
912,Aire de covoiturage,A la Gare,Chevanceaux,17104,Auto-stop,-0.238337,45.2948980
913,Rue Traversière,Avenue de Paris,Chevanceaux,17104,Auto-stop,-0.232977,45.3033640
914,Jardinerie Valbrie,A la Gare,Chevanceaux,17104,Auto-stop,-0.238141,45.2949280
915,Avenue de Paris,9 Avenue de Paris,Chevanceaux,17104,Auto-stop,-0.231734,45.3087170
916,Ancien garage,D 142 - 2 route de Jonzac,Chevanceaux,17104,Auto-stop,-0.232416,45.3079540
917,Abri bus - aire de loisirs,Rue des écoles,Cierzac,17106,Auto-stop,-0.313868,45.5692820
918,Mairie,4 rue de la petite champagne,Cierzac,17106,Auto-stop,-0.309983,45.5676150
919,Parking Mairie / Vieux logis,Rue du 8 Mai 1945,Clam,17108,Auto-stop,-0.44886,45.4930200
920,Place de la Mairie,Place de la Mairie,Clérac,17110,Auto-stop,-0.227891,45.1812280
921,Avenue Saint André,Av. St André,Clion,17111,Auto-stop,-0.5016,45.4813000
922,Saint Paul,Rue de St Paul,Clion,17111,Auto-stop,-0.49142,45.4667800
923,MAIRIE,ROUTE DE MARENNES,La Clisse,17112,Auto-stop,-0.7638683,45.7332383
924,LA FEUILLEE,ROUTE DE MARENNES,La Clisse,17112,Auto-stop,-0.7501681,45.7355394
925,ECOLE,ROUTE DE MARENNES,La Clisse,17112,Auto-stop,-0.7552155,45.7343391
926,Ecole,18 Rue de l'école,Consac,17116,Auto-stop,-0.59559,45.4162600
927,La Bergerie,11 la bergerie,Consac,17116,Auto-stop,-0.56541,45.4283350
928,la Bergerie,26 la bergerie,Consac,17116,Auto-stop,-0.56536,45.4295900
929,Arrêt de bus - Bourg de Consac,Place de l'Eglise,Consac,17116,Auto-stop,-0.59456,45.4173300
930,Mairie,1 place Claude Poget,Corignac,17118,Auto-stop,-0.390481,45.2480170
931,Aire de covoiturage de Corme-Royal Les Ormeaux,12 Résidence les Ormeaux. 17600 Corme-Royal,CORME ROYAL,17120,Aire de covoiturage,-0.813305,45.740425
932,Place de l'Eglise,Rue des Ecoles,Coulonges,17122,Auto-stop,-0.424047,45.6095420
933,Rue des Ecoles,Rue des grands jardins,Coulonges,17122,Auto-stop,-0.424293,45.6095870
934,Aire de covoiturage de Couréon Vallée d'Aulnes,52 Rue de Benon. 17170 Couréon,COURCON,17127,Aire de covoiturage,-0.814227,46.235069
935,RUE DE BENON,rue de Benon,Courçon,17127,Auto-stop,-0.813237,46.2426380
936,CHEZ BERNE,ROUTE DE CORCOSSE,Courcoury,17128,Auto-stop,-0.542981,45.6987050
937,CHEZ DESCHAMPS,RUE DES GRANDS CHAMPS,Courcoury,17128,Auto-stop,-0.573338,45.7094830
938,ECOLE,RUE PIERRE SCHOEFFER,Courcoury,17128,Auto-stop,-0.5776961,45.7108238
939,CHEMIN DU PRINTEMPS,RUE PIERRE SCHOEFFER,Courcoury,17128,Auto-stop,-0.5804983,45.7125613
940,Abri Bus,Le Bourg,Courpignac,17129,Auto-stop,-0.486722,45.3276840
941,Arrêt de bus,Le Bourg,Courpignac,17129,Auto-stop,-0.486043,45.3274630
942,Croix de Jean Vérat - abri bus,Allée de la Croix Jean Vérat,Coux,17130,Auto-stop,-0.41195,45.3172900
943,Le Bourg,Place du cimetière (Heulant),Coux,17130,Auto-stop,-0.4041,45.3124600
944,Aire de covoiturage de Cozes Bonne nouvelle,RD 730. Route de Bordeaux. 17120 Cozes,COZES,17131,Aire de covoiturage,-0.820842,45.576344
945,Aire de covoiturage de Dolus d'Oléron Délidon,Route du Viaduc. 17550 Dolus-d'Oléron,DOLUS D OLERON,17140,Aire de covoiturage,-1.252945,45.901564
946,Aire de covoiturage d'Echillais Pimale,D733. 17620 échillais,ECHILLAIS,17146,Aire de covoiturage,-0.965332,45.905819
947,ROUTE ROMAINE,ROUTE ROMAINE,Écoyeux,17147,Auto-stop,-0.506251,45.8177340
948,Place de la Mairie,Le Bourg,Expiremont,17156,Auto-stop,-0.37163,45.3241700
949,La Petite Fontaine,Bar Tabac La Petite Fontaine,Fontaines-d'Ozillac,17163,Auto-stop,-0.383135,45.3873040
950,La Gare,La Gare,Fontaines-d'Ozillac,17163,Auto-stop,-0.383706,45.3881960
951,Place du Dr Fleury,Place du Dr Fleury,Fontaines-d'Ozillac,17163,Auto-stop,-0.380312,45.3841460
952,LA PINSONNERIE,ROUTE DE SAINT JEAN D'ANGELYS,Fontcouverte,17164,Auto-stop,-0.584153,45.7649180
953,CENTRE BOURG,ROUTE DU BOURG,Fontcouverte,17164,Auto-stop,-0.591325,45.7703220
954,LORMONT BAS,ROUTE DE TAILLEBOURG,Fontcouverte,17164,Auto-stop,-0.617525,45.7620140
955,CHEZ BORET,ROUTE DE CHEZ BORET,Fontcouverte,17164,Auto-stop,-0.610385,45.7656520
956,ROUTE DU BOURG,ROUTE DE SAINT JEAN D'ANGELY,Fontcouverte,17164,Auto-stop,-0.583638,45.7656820
957,LA PINSONNERIE,ROUTE DE SAINT JEAN D'ANGELY,Fontcouverte,17164,Auto-stop,-0.586787,45.7624480
958,JERUSALEM,ROUTE DE TAILLEBOURG,Fontcouverte,17164,Auto-stop,-0.617638,45.7706960
959,Grand Pineau,Arrêt de bus,Le Fouilloux,17167,Auto-stop,-0.136911,45.1895000
960,Grand Pineau,Face arrêt de bus,Le Fouilloux,17167,Auto-stop,-0.137093,45.1894020
961,Aire de covoiturage de Gémozac Super U,Pied Sec. 17260 Gémozac,GEMOZAC,17172,Supermarché,-0.677049,45.575799
962,Place du Village,Place de l'avenir,Germignac,17175,Auto-stop,-0.33827,45.5722060
963,Arrêt de bus,Rue du Château,Givrezac,17178,Auto-stop,-0.628943,45.5434530
964,Ancienne forge,Rue de la forge,Givrezac,17178,Auto-stop,-0.628452,45.5441250
965,COURPIGNAC,RUE PAUL CLAUDEL,Les Gonds,17179,Auto-stop,-0.5955006,45.7066320
966,FIEF DU ROY,RUE DE PABAN,Les Gonds,17179,Auto-stop,-0.6297126,45.7133670
967,PHARMACIE,RUE HECTOR BERLIOZ,Les Gonds,17179,Auto-stop,-0.611966,45.7134003
968,MOULIN DE DIET,RUE DU CHENE,Les Gonds,17179,Auto-stop,-0.6195815,45.7110223
969,LES GILLARDEAUX,RUE DES GILLARDEAUX,Les Gonds,17179,Auto-stop,-0.6288137,45.7187270
970,Route de Jonzac,Route de Jonzac,Guitinières,17187,Auto-stop,-0.510489,45.4419390
971,Centre bourg,Rue du chateau,Jarnac-Champagne,17192,Auto-stop,-0.40187,45.5579200
972,Aire de covoiturage de Pons Bonnerme,46 Rue de Chantegeay. 17260 Jazennes,JAZENNES,17196,Aire de covoiturage,-0.593109,45.57334
973,Chartier Fleurs,24 Bd. René Gautret,Jonzac,17197,Auto-stop,-0.429279,45.4473770
974,Arène carrelage,D28  face Arène carrelage,Jonzac,17197,Auto-stop,-0.450587,45.4356430
975,Base de loisirs,Boulevard Adrien Barthélémy,Jonzac,17197,Auto-stop,-0.429815,45.4348370
976,Gare,14 Avenue du Général de Gaulle,Jonzac,17197,Auto-stop,-0.441974,45.4397150
977,Finances publiques,Avenue Foch,Jonzac,17197,Auto-stop,-0.428411,45.4485210
978,Face EHPAD J. Moulin,43 Av. J. Moulin,Jonzac,17197,Auto-stop,-0.42591,45.4425090
979,Gare,7 Av. de Lattre de Tassigny,Jonzac,17197,Auto-stop,-0.441772,45.4396710
980,Centre des congrès,57 Avenue Jean Moulin,Jonzac,17197,Auto-stop,-0.421167,45.4373050
981,Salle de Squash,6 Avenue Victor Hugo,Jonzac,17197,Auto-stop,-0.438487,45.4467450
982,Av. J. Moulin / Rue du château d'eau,Av. J. Moulin / Rue du château d'eau,Jonzac,17197,Auto-stop,-0.426575,45.4446450
983,Rocade face Lidl,Avenue du 57ème Régiment d'Infanterie,Jonzac,17197,Auto-stop,-0.450686,45.4373240
984,Centre des congrès,57 Avenue Jean Moulin,Jonzac,17197,Auto-stop,-0.420649,45.4372960
985,Parking MMA,13 Avenue V. Hugo,Jonzac,17197,Auto-stop,-0.438739,45.4463060
986,7 Terres de la Grave,7 terres de la Grave,Jonzac,17197,Auto-stop,-0.446352,45.4494230
987,Collège L. Dussaigne,10 Rue W. Churchill,Jonzac,17197,Auto-stop,-0.433495,45.4377180
988,Parc Juliette Drouet,Avenue Gambetta,Jonzac,17197,Auto-stop,-0.437863,45.4424590
989,Rocade,RD 28,Jonzac,17197,Auto-stop,-0.445753,45.4483680
990,3 rue Winston Churchill,3 rue Winston Churchill,Jonzac,17197,Auto-stop,-0.433209,45.4396600
991,Place,Avenue de la Double Saintonge,Jussas,17199,Auto-stop,-0.3445,45.2832300
992,Abri bus - Le Bourg,Place de la Mairie,Léoville,17204,Auto-stop,-0.337016,45.3771530
993,Rue du chateau d'eau,Face à la mairie,Lorignac,17210,Auto-stop,-0.68986,45.4574200
994,Place de la fontaine,Place de la fontaine,Lorignac,17210,Auto-stop,-0.68894,45.4557500
995,Aire de covoiturage de Marans Place Saint-Christophe,Rue des Moulins. 17230 Marans,MARANS,17218,Aire de covoiturage,-0.991178,46.305629
996,Aire de covoiturage de Marennes de Lattre de Tassigny,33 Avenue de Lattre de Tassigny. 17320 Marennes,MARENNES,17219,Aire de covoiturage,-1.118548,45.82938
997,Aire de covoiturage de Marennes Verte Ostréa,D728. 17320 Marennes,MARENNES,17219,Aire de covoiturage,-1.120324,45.830416
998,Chez Nicot,RD 142,Marignac,17220,Auto-stop,-0.473292,45.5229390
999,Aire de covoiturage de Matha Rond-Point de l'Europe,6 Rue des Arts. 17160 Matha,MATHA,17224,Aire de covoiturage,-0.305257,45.866659
1000,Aire de covoiturage de Medis G. Brassens,2 Route de la Gare. 17600 Médis,MEDIS,17228,Aire de covoiturage,-0.963378,45.645209
1001,La clé des Champs,39 Avenue de l'Océan,Meux,17233,Auto-stop,-0.349904,45.4428420
1002,Ecole,56 B Avenue de l'Océan,Meux,17233,Auto-stop,-0.352732,45.4428580
1003,Mission Locale,90 Avenue de la République,Mirambeau,17236,Auto-stop,-0.568915,45.3785750
1004,Antenne téléphonique,20 route de St Bonnet,Mirambeau,17236,Auto-stop,-0.573782,45.3717270
1005,Centre culturel,9 Av. de la République,Mirambeau,17236,Auto-stop,-0.571554,45.3714560
1006,Place de l'Eglise,Avenue de la République,Mirambeau,17236,Auto-stop,-0.570763,45.3732110
1007,Parking,Av. des Comtes Duchatel,Mirambeau,17236,Auto-stop,-0.565077,45.3750160
1008,Sortie de Petit Niort,26 Av. d'Aquitaine,Mirambeau,17236,Auto-stop,-0.568957,45.3644820
1009,Motoculture Mirambeaulaise,115 Avenue de la République,Mirambeau,17236,Auto-stop,-0.568605,45.3807380
1010,Entrée de Petit Niort,21 Av. d'Aquitaine,Mirambeau,17236,Auto-stop,-0.568973,45.3640550
1011,Aire de covoiturage de Montendre Centre Commercial,Boulevard de Saintonge. 17130 Montendre,MONTENDRE,17240,Supermarché,-0.410973,45.290373
1012,Station de Lavage,Bd de Saintonge,Montendre,17240,Auto-stop,-0.411081,45.2902150
1013,Pavillon - Chardes,Rue du Pavillon,Montendre,17240,Auto-stop,-0.38224,45.3023870
1014,Kiosque - Chardes,Rue de la Libération,Montendre,17240,Auto-stop,-0.38979,45.3030800
1015,Bar Fatima,Av. de la République,Montendre,17240,Auto-stop,-0.399038,45.2827230
1016,Lignères - Chardes,Rue de la Libération,Montendre,17240,Auto-stop,-0.397536,45.2995250
1017,Route de Mirambeau,60 Av. de Royan,Montendre,17240,Auto-stop,-0.41338,45.2912000
1018,Vallet,Parking salle municipale,Montendre,17240,Auto-stop,-0.36041,45.2985600
1019,Avenue de Sulz Am Neckar,Face 11 Av. de Sulz Am Neckar,Montendre,17240,Auto-stop,-0.39558,45.2816800
1020,Village Vacances Camping,Avenue de Onda,Montendre,17240,Auto-stop,-0.40102,45.2677000
1021,Gymnase,Rue de la Rogère,Montendre,17240,Auto-stop,-0.398737,45.2853650
1022,Rock School,Avenue de Onda,Montendre,17240,Auto-stop,-0.400786,45.2674340
1023,Place du champ de foire aux boeufs,Rue de St Savin,Montendre,17240,Auto-stop,-0.40978,45.2826900
1024,Clos de la Mauve - Chardes,"Lieux-dits ""les Rebrichets"" et ""la Mauve""",Montendre,17240,Auto-stop,-0.391721,45.3039760
1025,Route de Jonzac,6 route de Jonzac,Montendre,17240,Auto-stop,-0.41196,45.2911500
1026,Ancienne coopérative,Rue du Périgord,Montguyon,17241,Auto-stop,-0.18312,45.2128680
1027,Vassiac,30 rue de Vassiac,Montguyon,17241,Auto-stop,-0.185866,45.2179770
1028,Champ de Foire,Place du Champ de Foire,Montguyon,17241,Auto-stop,-0.186671,45.2167670
1029,Millet,Abri bus,Montguyon,17241,Auto-stop,-0.178399,45.1926990
1030,Ancienne distillerie,Rue du Périgord,Montguyon,17241,Auto-stop,-0.183302,45.2126330
1031,Aire de covoiturage de Montlieu-la-Garde Echangeur,112B Avenue de la République. 17210 Montlieu-la-Garde,MONTLIEU LA GARDE,17243,Sortie d'autoroute,-0.26828,45.241063
1032,Place du commerce,Avenue de la République,Montlieu-la-Garde,17243,Auto-stop,-0.257043,45.2449470
1033,Arrêt de bus,Aire de covoiturage,Montlieu-la-Garde,17243,Auto-stop,-0.268425,45.2410420
1034,Place de la Victoire,20 Av. de la République,Montlieu-la-Garde,17243,Auto-stop,-0.256716,45.2450840
1035,Aire de covoiturage de Mortagne stade,5 Rue du Stade. 17120 Mortagne-sur-Gironde,MORTAGNE SUR GIRONDE,17248,Aire de covoiturage,-0.788384,45.480576
1036,Place de la Mairie,Place de la mairie,Mortiers,17249,Auto-stop,-0.321286,45.4024430
1037,Parking salle des fêtes,Face 6 route de St Grégoire,Mosnac,17250,Auto-stop,-0.52362,45.5026100
