idLieu,nomLieu,adresseLieu,commune,codeINSEELieu,typeLieu,longitude,latitude
01004-C-001,Parking intermodal Gare d'Ambérieu en Bugey,"Rue Emile Bravet, Ambérieu en Bugey",AMBERIEU-EN-BUGEY,01004,Parking,5.34119617,45.956598704
01004-C-002,Arrêt covoit'ici Ambérieu en Bugey,Gare d'Ambérieu en Bugey,AMBERIEU-EN-BUGEY,01004,Auto-stop,5.34272020620408,45.954232106707
01024-C-001,Mairie d'Attignat,Place De La Fontaine- Anciens Combattants,ATTIGNAT,01024,Parking,5.158352778,46.28957222
01024-C-002,Bourg-Nord,Dept. 01 - Autoroute A40 - Diffuseur n°5,ATTIGNAT,01024,Aire de covoiturage,5.168004,46.259779
01027-C-001,Parking de covoiturage du Revirat,RD 1084 - BALAN (Sortie n°6 Balan),BALAN,01027,Aire de covoiturage,5.099374,45.850267
01027-C-002,Balan,Dept. 01 - Autoroute A42 - Diffuseur n°6,BALAN,01027,Sortie d'autoroute,5.1003936,45.850757
01029-C-001,Beaupont,Dept. 01 - Autoroute A39 - Diffuseur n°10,BEAUPONT,01029,Aire de covoiturage,5.26919,46.440334
01049-C-001,Aire de covoiturage Montluel,La Boisse,LA BOISSE,01049,Aire de covoiturage,5.048432,45.840543
01049-C-002,Parking de covoiturage des Pré-Seigneurs,Avenue des Pré-seigneurs - La BOISSE ,LA BOISSE,01049,Aire de covoiturage,5.049643,45.842463
01065-C-001,Buellas,Place feux Corgenon D45,BUELLAS,01065,Parking,5.1578889,46.1966036
01081-C-001,Champfromier,Route des Burgondes,Champfromier,01081,Auto-stop,5.81559,46.1935000
01089-C-001,Aire de covoiturage Château-Gaillard,Dept. 01 - Autoroute A42 - Diffuseur n°8,CHATEAU-GAILLARD,01089,Sortie d'autoroute,5.312245,45.97676748
01093-C-001,Parking Bel Air,Route De Neuville - Parking Bel Air,CHATILLON SUR CHALARONNE,01093,Parking,4.964663889,46.12900556
01096-C-001,Parking La Genetiere,Route De Bourg - La Genetiere,CHAVEYRIAT,01096,Parking,5.073319444,46.17810278
01096-C-002,Place du Monument,Route De Condeissiat - Place Du Monument,CHAVEYRIAT,01096,Parking,5.059761111,46.19888333
01115-C-001,Place du Logis Neuf,Place Du Logis Neuf,CONFRANCON,01115,Parking,5.055497222,46.25655278
01125-C-001,Corveissiat,place Charles Blétel le long de la RD 936 ,CORVEISSIAT,01125,Parking,5.480195,46.24133
01134-C-001,Crottet,sortie d'autoroute au rond point ,CROTTET,01134,Aire de covoiturage,4.8749,46.28444
01134-C-002,Pont-de-Veyle ,Gare de Pont-de-Veyle,CROTTET,01134,Aire de covoiturage,4.89233,46.26777
01151-C-001,Place de L'Eglise,Route De Pont D'Ain - Monument Aux Morts,DRUILLAT,01151,Parking,5.31775,46.05911111
01195-C-001,Place Sans Souci,Place Sans Souci,JASSERON,01195,Parking,5.3263,46.21393889
01196-C-001,Parking Chemin de L'Ecole,Chemin De L'école,JAYAT,01196,Parking,5.119902778,46.36907222
01213-C-001,Arrêt Covoit'Ici Leyment,D77 Leyment,LEYMENT,01213,Auto-stop,5.29363609551392,45.9232284166074
01224-C-001,Arrêt Covoit'ici Loyettes,"Rue du Bugey, Loyettes",LOYETTES,01224,Auto-stop,5.21134013935319,45.7778304685121
01236-C-001,Place de L'Eglise,Place De L'église,MARSONNAS,01236,Parking,5.071047222,46.34124722
01244-C-001,Parking intermodal Gare de Meximieux Pérouges,"Chemin des Verchères, Meximieux",MEXIMIEUX,01244,Parking,5.193117661,45.9012415
01245-C-001,Place de Bohas,D979 Place De Bohas,BOHAS MEYRIAT RIGNAT,01245,Parking,5.388425,46.15994722
01248-C-001,Aire de covoiturage du Mionnay,Mionnay,MIONNAY,01248,Sortie d'autoroute,4.899796871,45.8831017
01248-C-002,Aire de covoiturage de Mionnay (01390),Sortie d'autoroute Demi-échangeur A46,MIONNAY,01248,Aire de covoiturage,4.8997728,45.883082
01250-C-001,MISÉRIEUX- Chemin du Gouverneur,"337 Grande Rue, 01600 Misérieux",MISERIEUX,01250,Aire de covoiturage,4.809038,45.976695
01252-C-001,Aire de covoiturage ,"RD933, 01140 Mogneneins (à l'arrêt de bus RD933 Centre) ",MOGNENEINS,01252,Aire de covoiturage,4.80670263,46.14092377
01266-C-001,Place General de gaulle,Place Du Général De Gaulle,MONTREVEL EN BRESSE,01266,Parking,5.125961111,46.33573333
01266-C-002,Montrevel,place De Gaulle,MONTREVEL-EN-BRESSE,01266,Parking,5.1269114963524,46.3361873
01276-C-001,"Parking de covoiturage, La Côte",780 Route de Balan - Dept. 01 - Autoroute A42 - Diffuseur n° 5.1,NIEVROZ,01276,Aire de covoiturage,5.05087933,45.8379163
01290-C-001,Aire de covoiturage Pérouges,Pérouges,PEROUGES,01290,Sortie d'autoroute,5.182171,45.860683
01290-C-002,Aire de covoiturage A42 Meximieux Perouges,Dept. 01 - Autoroute A42 - Diffuseur n°7,PEROUGES,01290,Aire de covoiturage,5.18408351337754,45.8597518026284
01301-C-001,Parking du Stade,"Route Saint Martin Le Chétel ""Stade""",POLLIAT,01301,Parking,5.126572,46.251132
01301-C-002,Parking Quinconces,"Route De Chamonin - ""Quinconces""",POLLIAT,01301,Parking,5.121596,46.250066
01304-C-001,Pont-d'Ain,Dept. 01 - Autoroute A42 - Diffuseur n°9,PONT-D'AIN,01304,Aire de covoiturage,5.33049,46.049867545
01343-C-001,Parking Mairie,Place de la Mairie,Saint-Cyr-sur-Menthon,01343,Parking,4.974385,46.275074
01350-C-001,Terrain de Boules - Chemin des Lyonniéres,Chemin Des Lyonniéres - Terrain De Boules,ST ETIENNE DU BOIS,01350,Parking,5.289722222,46.28322222
01350-C-002,Terrain de Boules - Chemin des Lyonnières,chemin des Lyonnières - terrain de boules,SAINT-ETIENNE-DU-BOIS,01350,Aire de covoiturage,5.289722,46.2832222
01353-C-001,SAINTE-EUPHÉMIE,"841 rue de la mairie, 01600 SAINTE-EUPHÉMIE",SAINTE-EUPHEMIE,01353,Aire de covoiturage,4.793284,45.971647
01366-C-001,Arrêt Covoit'ici Lste Julie,"Route de Leyment, Sainte Julie",SAINTE-JULIE,01366,Auto-stop,5.27922083937107,45.8907693335394
01376-C-001,Aire de covoiturage Saint-Maurice-De-Beynost,Saint-Maurice-De-Beynost,ST MAURICE DE BEYNOST,01376,Sortie d'autoroute,4.989172,45.820935
01386-C-001,Parking de covoiturage de St Sorlin en Bugey,"Rond Point du Pont de Lagnieu, 01150, Saint-Sorlin-en-Bugey",SAINT-SORLIN-EN-BUGEY,01386,Aire de covoiturage,5.34734366168449,45.8857341648967
01386-C-002,Arrêt Covoit'ici St Sorlin en Bugey,"Route du Port, Saint Solrin en Bugey",SAINT-SORLIN-EN-BUGEY,01386,Auto-stop,5.37029535905082,45.8849147277107
01390-C-001,Arrêt Covoit'ici Centrale EDF,"Parking RTE Centrale EDF Bugey, D20, Saint Vlubas",SAINT-VULBAS,01390,Auto-stop,5.25456408521974,45.7957709495424
01390-C-002,Arrêt Covoit'ici PIPA Nord,"Avenue des Bergeries, Saint Vulbas",SAINT-VULBAS,01390,Auto-stop,5.28413734870342,45.8479994791312
01390-C-003,Arrêt Covoit'ici PIPA Sud,"Rue Charles de Gaulle, Saint Vulbas",SAINT-VULBAS,01390,Auto-stop,5.28684558357301,45.8368502178655
01396-C-001,Arrêt Covoit'ici Sault Brenaz,"Grand Rue, Sault Brenaz",SAULT-BRENAZ,01396,Auto-stop,5.40546777519829,45.8577068695411
01405-C-001,Parking des Sports,D1083 Servas,SERVAS,01405,Aire de covoiturage,5.163272,46.131197
01422-C-001,Place de La Fontaine,Place De La Fontaine- Anciens Combattants,TOSSIAT,01422,Parking,5.316269444,46.14157222
01422-C-002,Bourg-Sud,Dept. 01 - Autoroute A40 - Diffuseur n°7,TOSSIAT,01422,Aire de covoiturage,5.28546756,46.145169
01423-C-001,TOUSSIEUX- Salle des fêtes,"194 route de Sainte-Euphémie, 01600 TOUSSIEUX",TOUSSIEUX,01423,Aire de covoiturage,4.822062,45.96017
01426-C-001,Parking du Stade,Stade De Sport,VAL REVERMONT,01426,Parking,5.362436111,46.26710278
01427-C-001,TRÉVOUX - Saint Mamet,"5 rue Robert Baltié, 01600 TRÉVOUX",TREVOUX,01427,Aire de covoiturage,4.768434,45.940257
01427-C-002,Trévoux - Chantegrillet,Rue de la Montluelde 01600 Trévoux,TREVOUX,01427,Aire de covoiturage,4.780993,45.940813
01429-C-001,Mairie de Vandeins,D45 Vandeins,VANDEINS,01429,Aire de covoiturage,5.078811,46.215842
01451-C-001,Viriat,Dept. 01 - Autoroute A40 - Diffuseur n°6,VIRIAT,01451,Aire de covoiturage,5.272827,46.2363254
02157-C-001,Péage Laon,Gare De Péage. Autoroute A26. 02000 Chambry,CHAMBRY,02157,Sortie d'autoroute,3.663798596,49.60744757
02163-C-001,Super U Charly Sur Marne,Route De Pavant. 02310 Charly-Sur-Marne,CHARLY SUR MARNE,02163,Supermarché,3.282443232,48.97251912
02168-C-001,Covoiturage SANEF Château-Thierry,A4 Sortie 20 La Planchette 02400 Bézu-Saint-Germain,CHATEAU THIERRY,02168,Sortie d'autoroute,3.400251563,49.07858266
02168-C-002,Carrefour Chateau Thierry,37 Avenue d'Essémes. 02400 Chéteau-Thierry,CHATEAU THIERRY,02168,Supermarché,3.387474767,49.0406979
02168-C-003,Leclerc Chéteau Thierry,12 Rue de la Plaine. 02400 Chéteau-Thierry,CHATEAU THIERRY,02168,Supermarché,3.389779016,49.03736798
02209-C-001,Mairie de ConDé En Brie,1 Rond-Point Du Cahot. 02330 ConDé-En-Brie,CONDE EN BRIE,02209,Aire de covoiturage,3.555901022,49.00457585
02239-C-001,Parking écoquartier Crézancy,2 Rue De Paris. 02650 Crézancy,CREZANCY,02239,Aire de covoiturage,3.513723672,49.04996586
02305-C-001,Super U Fére En Tardenois,Fére En Tardenois. 02130 Fére-En-Tardenois,FERE EN TARDENOIS,02305,Supermarché,3.516296885,49.20296656
02408-C-001,Covoiturage SANEF Laon,A26 Sortie 13,LAON,02408,Sortie d'autoroute,3.663693,49.606902
03007-C-001,Arpheuille Centre,Route départementale 160,Arpheuilles-Saint-Priest,03007,Auto-stop,2.6785002,46.2243316
03007-C-002,Arpheuille Centre n°2,Route Départementale n°160,Arpheuilles-Saint-Priest,03007,Auto-stop,2.6783173,46.2242027
03007-C-003,Montrobert,Route communale,Arpheuilles-Saint-Priest,03007,Auto-stop,2.6421855,46.2480070
03007-C-004,La Croix de Fer,Carrefour Rd 69 / Rd 160,Arpheuilles-Saint-Priest,03007,Auto-stop,2.6635228,46.2283407
03031-C-001,Aire de covoiturage de Bizeneuille,Lieudit Fragne,BIZENEUILLE,03031,Aire de covoiturage,2.69891609,46.38681335
03073-C-001,Aire de Chemilly,Echangeur RCEA (N79),CHEMILLY,03073,Aire de covoiturage,3.31629589,46.47358012
03073-C-002,Parking de L'Eglise,Place de l'Eglise,CHEMILLY,03073,Parking,3.31658635,46.48921715
03084-C-001,Parking du Bourg,Place de la LIberté (face garage Renault),COSNE D ALLIER,03084,Parking,2.83054592,46.47558623
03092-C-001,Parking du Bourg,Le Bourg,CRESSANGES,03092,Parking,3.16075256,46.44417676
03093-C-001,Aire de covoiturage du Creuzier,Lieudit les Ancizes,CREUZIER LE NEUF,03093,Aire de covoiturage,3.45437124,46.18481218
03098-C-001,Parking de La Verne,Parking de la Verne,DESERTINES,03098,Parking,2.62639058,46.34439195
03101-C-001,Stade,Parking du Stade,DOMERAT,03101,Parking,2.54675315,46.35823287
03102-C-001,Parking Thomassots,Les Thomassots,DOMPIERRE SUR BESBRE,03102,Parking,3.68849384,46.51791574
03118-C-001,Aire de covoiturage des Chillins,Les Chillins proximité echangeur A71-A719,GANNAT,03118,Aire de covoiturage,3.13837825,46.10311391
03118-C-002,Place Saint-James,Place Saint James,GANNAT,03118,Parking,3.19906571,46.09634674
03118-C-003,Za Les Clos durs,ZA les Clos Durs,GANNAT,03118,Parking,3.2030103,46.11107088
03122-C-001,Parking de La Mairie,Le Bourg,GIPCY,03122,Parking,3.05378868,46.50258963
03132-C-001,Place du Marché Couvert,Place du Marché Couvert,JALIGNY SUR BESBRE,03132,Parking,3.59436117,46.37931377
03138-C-001,Aire des Vérités,Bellevue,LAPALISSE,03138,Aire de covoiturage,3.61326614,46.24541141
03138-C-002,Place Jean Macé,Place Jean Macé,LAPALISSE,03138,Parking,3.62925909,46.24866192
03140-C-001,Parking terrain de tennis,Parking tennis club,CHANTELLE,03140,Parking,3.157248487341929,46.240771787258986
03140-C-002,Parking Salle des fetes,Parking salle des fetes,FLEURIEL,03140,Parking,3.1768981715065703,46.282924001479955
03161-C-001,Marcillat Centre,Grand-Rue,Marcillat-en-Combraille,03161,Auto-stop,2.6314635,46.1674022
03161-C-002,Marcillat centre n°2,Grand-Rue,Marcillat-en-Combraille,03161,Auto-stop,2.6313074,46.1673228
03167-C-001,Centre Bourg - 2,Route Départementale RD350,Mazirat,03167,Auto-stop,2.5405941,46.2233201
03167-C-002,Centre Bourg - 1,Route Départementale RD50,Mazirat,03167,Auto-stop,2.5405819,46.2234939
03183-C-001,Place du Champ de Foire,Place du champ de foire,LE MONTET,03183,Parking,3.0535136,46.40858365
03185-C-001,Parking Saint-Jean,Route de Néris,MONTLUCON,03185,Parking,2.6099707,46.32602626
03185-C-002,Faucheroux,Ave John Kennedy,Montluçon,03185,Auto-stop,2.608654,46.3296130
03185-C-003,St Jean du haut,62 route de Villebret,Montluçon,03185,Auto-stop,2.6114114,46.3214880
03216-C-001,Ronnet Centre,Carrefour RD160 / RD 154,Ronnet,03216,Auto-stop,2.6994999,46.2053511
03216-C-002,Ronnet Centre n°2,Route Départementale n°160,Ronnet,03216,Auto-stop,2.6992571,46.2050540
03231-C-001,St Fargeol,Carrefour RD 51/ RD 351,Saint-Fargeol,03231,Auto-stop,2.629069,46.1376269
03233-C-001,St Genest,Route départementale n°50,Saint-Genest,03233,Auto-stop,2.5917511,46.2647797
03233-C-002,La Grange,Route Départementale 152,Saint-Genest,03233,Auto-stop,2.6300745,46.2563401
03233-C-003,St Genest,Rouite départementale n°50,Saint-Genest,03233,Auto-stop,2.5919287,46.2647098
03234-C-001,Parking Salle Polyvalente,Salle Polyvalente. place de la Mairie,ST GERAND DE VAUX,03234,Parking,3.40064274,46.38009454
03244-C-001,St Marcel en Marcillat,Route Départementale RD 435,Saint-Marcel-en-Marcillat,03244,Auto-stop,2.5903915,46.1449246
03244-C-002,St Marcel en Marcillat,Route Départementale 432,Saint-Marcel-en-Marcillat,03244,Auto-stop,2.5910523,46.1447780
03261-C-001,Centre Bourg,Rue du Bon Accueil - RD151,Sainte-Thérence,03261,Auto-stop,2.5606381,46.2423490
03261-C-002,Carrefour RD151 / RD50,Carrefour Routes départementales RD151 / RD50,Sainte-Thérence,03261,Auto-stop,2.5713095,46.2397744
03262-C-001,Centre Aqualudique,Parking Centre Aqualudique,ST VICTOR,03262,Parking,2.58529404,46.37863358
03280-C-001,Terjat - Stade,Route Départementale 109,Terjat,03280,Auto-stop,2.6173882,46.2039665
03280-C-002,Bar Tabac,Carrefour routes départementales RD109 / RD151,Terjat,03280,Auto-stop,2.6159988,46.2035552
03291-C-001,Parking Lieu-Dit L'Hermitage,Lieu dit l'Hermitage,TREZELLES,03291,Parking,3.58485918,46.32831573
03314-C-001,La Goutelle,Route départementale RD50,Villebret,03314,Auto-stop,2.6040991,46.2914927
03314-C-002,Stade,Route de Beauregard / RD452,Villebret,03314,Auto-stop,2.6286798,46.2776547
03314-C-003,Villebret Centre,Rue Raoul DAUTRY,Villebret,03314,Auto-stop,2.6376232,46.2681921
03314-C-004,Beauregard,Route de Beauregard - RD452,Villebret,03314,Auto-stop,2.6187127,46.2818167
03330-C-001,Parking Avenue Michelet,Avenue Michelet,BELLENAVES,03330,Parking,3.080136817817565,46.19834292198643
03330-C-002,Parking Rue du 8 mai,Rue du 8 mai 1945,BELLENAVES,03330,Parking,3.077737712447782,46.20091209428352
03450-C-001,Parking Municipal,Parking municipal Allee des Coteaux,EBREUIL,03450,Aire de covoiturage,3.085740109072696,46.116342591814785
03500-C-001,Parking place de la liberte,Rue de la pierre Billot,BRANSAT,03500,Parking,3.2289150782108407,46.31918893121457
03500-C-002,Parking Saulcet,Allee Roger Cherillat,SAULCET,03500,Parking,3.2629259909122985,46.32507311251342
03800-C-001,Parking de covoiturage,Parking de la Mairie,LE MAYET D'ECOLE,03800,Aire de covoiturage,3.240662055463683,46.16833821857797
03800-C-002,Parking du Coin Marsat,Place du Coin Marsat,MAZERIER,03800,Parking,3.190297469600161,46.12529001259516
04001-C-001,Place de La Mairie,5 Place de la Mairie. 04510 Aiglun,AIGLUN,04001,Parking,6.144045,44.050758
04019-C-001,Parking Allée des Pins,4 Allée des Pins. 04400 Barcelonnette,BARCELONNETTE,04019,Parking,6.635163,44.386475
04022-C-001,Parking du Cimetiére,Le Village. 04330 Barréme,BARREME,04022,Parking,6.372135,43.955113
04026-C-001,Parking Parcelle 683 Sur La D951. Ancien Point Relais Information,Les Mouliniers. 05190 Bréziers,BELLAFFAIRE,04026,Parking,6.184797,44.422655
04031-C-001,Place St Jean La Bégude. Bras D'Asse,1 Route de la Fontaine. 04270 Bras-d'Asse,BRAS D ASSE,04031,Parking,6.13412,43.920125
04036-C-001,Parking de La Mairie,Le Brusquet - Village. 04420 Le Brusquet,LE BRUSQUET,04036,Parking,6.313541,44.161969
04067-C-001,Parking du Passavour,La cabine du passavour. 04200 Curel,CUREL,04067,Parking,5.672785,44.176217
04070-C-001,Parking Décathlon Route de Marseille,5 Route de Marseille. 04000 Digne-les-Bains,DIGNE LES BAINS,04070,Parking,6.17887,44.069529
04084-C-001,Parking Entrée de Village,D907 à droite de l'entrée du village en arrivant de Mézel,ESTOUBLON,04084,Parking,6.17125,43.943831
04086-C-001,Place de L'église,2 Le Village. 04400 Faucon-de-Barcelonnette,FAUCON DE BARCELONNETTE,04086,Parking,6.678269,44.393746
04104-C-001,"Parking devant Le Camping ""Les Lauzons""",Les Bouires,LIMANS,04104,Parking,5.733151,43.973047
04110-C-001,Parking de L'Esplanade Jean Moulin,4586 Avenue du Général de Gaulle. 04510 Mallemoisson,MALLEMOISSON,04110,Parking,6.126217,44.041722
04112-C-002,Parking de covoiturage de Manosque,A51 Sortie 18 Manosque,MANOSQUE,04112,Aire de covoiturage,5.811568,43.808712
04122-C-001,Parking Au Carrefour des 4 Chemins,D117 & D17,MIRABEAU,04122,Parking,6.10239,44.05902
04149-C-002,Parking de covoiturage de Peyruis,A51 Sortie 20 Peyruis,PEYRUIS,04149,Aire de covoiturage,5.960759,44.038156
04174-C-001,Parking du Croisement D460 et Rn202 (Au Passage à Niveau),D460. 04240 Saint-Benoét,ST BENOIT,04174,Parking,6.724074,43.960158
04200-C-001,Parking de covoiturage de Sisteron Nord,A51 Sortie 23 Sisteron Nord,Sisteron,04200,Aire de covoiturage,5.914138,44.224555
04209-C-001,Sisteron Nord,Sisteron Nord (échangeur n°23 de l'A 51),Sisteron,04209,Aire de covoiturage,5.9143268,44.2242963
04217-C-001,Parking du Quartier Les Bourres,19 Les Bourres. 04380 Thoard,THOARD,04217,Parking,6.132315,44.136228
04217-C-002,Place du Village,206 Boulevard Paul Avignon. 04380 Thoard,THOARD,04217,Parking,6.148995,44.149327
04220-C-001,Parking de La Poste,PLACE FERNAND GILLY. Lotissement le Clét. 04400 Les Thuiles,LES THUILES,04220,Parking,6.572451,44.394026
04222-C-001,Parking du Stade,Avenue Paul Honnorat. 04250 Turriers,TURRIERS,04222,Parking,6.170568,44.399939
04226-C-001,Parking de La Za des Chabrand,15 Traverse du Bachelard. 04400 Barcelonnette,UVERNET FOURS,04226,Parking,6.627212,44.377922
04226-C-002,Parking Godille Tabac,Pra Loup 1500. 04400 Pra-Loup,UVERNET FOURS,04226,Parking,6.614785,44.360672
04230-C-001,Parking de La Salle Polyvalente,6018 Pl. Frederic Mistral. 04210 Valensole,VALENSOLE,04230,Parking,5.986746,43.836375
04244-C-001,Aire de Loisirs Mathieu Perona,33 La Coueste. 04290 Volonne,VOLONNE,04244,Parking,6.009842,44.109882
04245-C-001,Aire de covoiturage de Volx,A51. 04130 Volx,VOLX,04245,Aire de covoiturage,5.848225,43.842979
06004-C-001,Parking Ecomobilité Croix Rouge,route de grasse,Antibes,06004,Aire de covoiturage,7.0891874016205,43.59712913313066
06004-C-002,Parking Ecomobilité Martyrs de la résistance,avenue des Martyrs de la Résistance,Antibes,06004,Aire de covoiturage,7.091733468463417,43.59592234427828
06069-C-001,Parc Relais Alambic,D9. 06130 Grasse,GRASSE,06069,Parking relais,6.936138,43.641102
06079-C-001,Parc Relais La Canardiére,Zone Industrielle De La Canardiére. Avenue du Maréchal Lyautey. 06210 Mandelieu-la-Napoule,MANDELIEU LA NAPOULE,06079,Parking relais,6.946097,43.553332
06084-C-001,Parc Relais Giratoire Pénétrante,600 Route de la Roquette. 06370 Mouans-Sartoux,MOUANS SARTOUX,06084,Parking relais,6.967739,43.612562
06161-C-001,Parc Relais Les Plans,117 Avenue des Ferrayonnes. 06270 Villeneuve-Loubet,VILLENEUVE LOUBET,06161,Parking relais,7.127547,43.652775
07005-C-001,Station de service Alba la Romaine,D263A. 07400 Alba-la-Romaine,ALBA LA ROMAINE,07005,Parking,4.595806,44.56277
07009-C-001,Station Essence Torrenson,10 Avenue de Beaucaire. 07340 Andance,ANDANCE,07009,Parking,4.798276,45.23621
07052-C-001,Aire de covoiturage de Champis,3945 Route de Valence. 07440 Champis,CHAMPIS,07052,Aire de covoiturage,4.765861,44.941659
07060-C-001,Portes du Pays de Crussol,41 Route Royale. 07240 Chéteauneuf-de-Vernoux,CHATEAUNEUF DE VERNOUX,07060,Parking,4.642699,44.919568
07064-C-001,Plaisance,5 Chemin d'Aurives. 07160 Le Cheylard,LE CHEYLARD,07064,Parking,4.428552,44.911867
07069-C-001,Parking Boucherie Valla,Le Village E. 07410 Colombier-le-Vieux,COLOMBIER LE VIEUX,07069,Parking,4.695545,45.066191
07070-C-001,Salle des fétes,126 Avenue du Colonel Rousset. 07130 Cornas,CORNAS,07070,Parking,4.848119,44.960664
07076-C-001,Les Chrysanthémes,2 Pl. des Chrysanthemes. 07350 Cruas,CRUAS,07076,Parking,4.759546,44.652089
07078-C-001,Aire de covoiturage de Davézieux,2147 Route de Lyon. 07430 Saint-Clair,DAVEZIEUX,07078,Aire de covoiturage,4.706238,45.261776
07089-C-001,Aire de covoiturage de Félines,71 D109. 07340 Felines,FELINES,07089,Aire de covoiturage,4.740932,45.308776
07102-C-001,Parking Stade Mistral,459 Rue Pierre Curie. 07500 Guilherand-Granges,GUILHERAND GRANGES,07102,Parking,4.884288,44.93741
07107-C-001,Espace Seroul,D19. 07380 Jaujac,JAUJAC,07107,Parking,4.264253,44.635618
07117-C-001,Aire de covoiturage Lablachére,D104A. 07230 Lablachére,LABLACHERE,07117,Aire de covoiturage,4.220053,44.458547
07122-C-001,Parking Lachapelle sous Aubenas,540 Route de Saint-Sernin. 07200 Lachapelle-Sous-Aubenas,LACHAPELLE SOUS AUBENAS,07122,Parking,4.374353,44.570055
07127-C-001,Le boulodrome,33 Avenue Centrale. 07380 Lalevade-d'Ardéche,LALEVADE D ARDECHE,07127,Parking,4.322269,44.651711
07129-C-001,Les Déviéres,2 Rue Raoul Follereau. 07270 Lamastre,LAMASTRE,07129,Parking,4.572838,44.982221
07138-C-001,Coudoulas,N102. 07170 Lavilledieu,LAVILLEDIEU,07138,Parking,4.462739,44.567346
07157-C-001,Aire de covoiturage de Meysse,1 Rue Chevriére. 07400 Meysse,MEYSSE,07157,Aire de covoiturage,4.724946,44.60963
07165-C-001,Parking de l'église Saint-Jacques,D578. 07160 Noniéres,NONIERES,07165,Parking,4.486631,44.932481
07172-C-001,Aire de covoiturage de Peaugres,39 Route des Maures. 07340 Peaugres,PEAUGRES,07172,Aire de covoiturage,4.734216,45.291566
07181-C-001,Parking arcades voie ferrée,1123 D86. 07250 Le Pouzin,LE POUZIN,07181,Parking,4.750111,44.756025
07188-C-001,Aire covoiturage de Quintenas,20 D578,QUINTENAS,07188,Aire de covoiturage,4.685986,45.191302
07204-C-001,Parking du rond point D120,D120. 07320 Saint-Agréve,ST AGREVE,07204,Parking,4.401874,45.006689
07205-C-001,Parking la poste,Fontaine Bénite. 07790 Saint-Alban-d'Ay,ST ALBAN D AY,07205,Parking,4.63903,45.188619
07225-C-001,Aire covoiturage de Saint-Clair,1717 D820,SAINT-CLAIR,07225,Aire de covoiturage,4.687803,45.268609
07264-C-001,Parking D86 La Marequiére,La Marequiére. 07700 Saint-Marcel-d'Ardéche,ST MARCEL D ARDECHE,07264,Parking,4.631091,44.325145
07279-C-001,Parking du rond point D262,La Borne. 07220 Saint-Montan,ST MONTAN,07279,Parking,4.649549,44.43041
07288-C-001,Parking Bar Chambon Joel,82 D7. 07000 Saint-Priest,ST PRIEST,07288,Parking,4.574834,44.720736
07289-C-001,Aire de covoiturage de Saint-Privat,Saint-Privat Gabelu. 07200 Saint-Privat,ST PRIVAT,07289,Aire de covoiturage,4.41817,44.62665
07295-C-001,Parking en face l'Eglise Reformée,1 Place du Jardin Public. 07190 Saint-Sauveur-de-Montagut,ST SAUVEUR DE MONTAGUT,07295,Parking,4.57777,44.820196
07296-C-001,Parking en face de Votre marché,35 Chemin de l'Ardéche. 07200 Saint-Sernin,ST SERNIN,07296,Parking,4.393451,44.570891
07302-C-001,Aire de covoiturage D322,D322. 07210 Saint-Vincent-de-Barrés,ST VINCENT DE BARRES,07302,Aire de covoiturage,4.70616,44.661717
07316-C-001,Parking Intermarché Soyons,915-891 Chemin du Ruisseau. 07500 Soyons,SOYONS,07316,Parking,4.861913,44.917749
07319-C-001,Aire de covoiturage du Teil,ZAC Entre Pont et Rhéne. 07400 Le Teil,LE TEIL,07319,Aire de covoiturage,4.68897,44.554489
07337-C-001,Parking rond point D370A,D370A Vernosc-lès-Annonay,VERNOSC-LES-ANNONAY,07337,Aire de covoiturage,4.715622,45.234351
07338-C-001,Parking D232,D14. 07240 Vernoux-en-Vivarais,VERNOUX EN VIVARAIS,07338,Parking,4.679828,44.908164
07338-C-002,Parking Camping Municipal Le Bois de Prat,410 Allée de Prat. 07240 Vernoux-en-Vivarais,VERNOUX EN VIVARAIS,07338,Parking,4.64981,44.902848
07342-C-001,Parking La Forét des Contes en Vocance,Chemin des Prés Peloux. 07690 Villevocance,VILLEVOCANCE,07342,Parking,4.59487,45.229671
07342-C-002,Parking La Foret des Contes en Vocance,"Chemin des Pres Peloux, 07690 Villevocance",VILLEVOCANCE,07342,Parking,4.594814,45.229308
07346-C-001,Aire de covoiturage Les quatre chemins,D86. 07220 Viviers,VIVIERS,07346,Aire de covoiturage,4.678984,44.492627
07349-C-001,Parking Salle des fétes,1005-2 Rue René Cassin. 07800 La Voulte-sur-Rhéne,LA VOULTE SUR RHONE,07349,Parking,4.785377,44.802728
08017-C-001,Gare,Place de la gare,Apremont,08017,Auto-stop,4.9916437,49.2696388
08017-C-002,Herminette,Rue de la gare,Apremont,08017,Auto-stop,4.990663,49.2691800
08017-C-003,Ecuries,Place de léglise,Apremont,08017,Auto-stop,4.9878004,49.2696564
08019-C-001,Fontaine,7  grand rue,Les Grandes-Armoises,08019,Auto-stop,4.892242,49.5321200
08020-C-001,Vermeil,A langle de la grand rue et de la rue de léglise,Les Petites-Armoises,08020,Auto-stop,4.825611,49.5045200
08020-C-002,Coquelicot,A langle de la grand rue et de la rue de léglise,Les Petites-Armoises,08020,Auto-stop,4.825943,49.5045520
08031-C-001,Allin,Rue neuve,Aure,08031,Auto-stop,4.636778,49.2732230
08031-C-002,Perrières,Au silo  sur la D306,Aure,08031,Auto-stop,4.639556,49.2726240
08033-C-001,Mairie,Angle grande rue et rue du My,Authe,08033,Auto-stop,4.8792011,49.4583130
08033-C-002,Moulin,Angle de la grande rue et de la rue du moulin,Authe,08033,Auto-stop,4.8788638,49.4587845
08033-C-003,Thermes,Rue du moulin,Authe,08033,Auto-stop,4.879174,49.4586970
08035-C-001,Autruche,Gare d'Autruche,Autruche,08035,Auto-stop,4.891641,49.4419150
08036-C-001,Camping,Rue des ponts,Autry,08036,Auto-stop,4.838759,49.2653750
08036-C-002,Gerbille,Voie de Challerange,Autry,08036,Auto-stop,4.829328,49.2688130
08036-C-003,Gecko,Voie de Challerange,Autry,08036,Auto-stop,4.8295,49.2687710
08036-C-004,Place,Place du village,Autry,08036,Auto-stop,4.838668,49.2678960
08045-C-001,Notre Dame,Rue Notre Dame,Ballay,08045,Auto-stop,4.747172,49.4291090
08045-C-002,Martignière,Croisement de la rue de la Martignière et de la rue Notre Dame,Ballay,08045,Auto-stop,4.749522,49.4307100
08049-C-001,Moulin,Rue du moulin,Bar-lès-Buzancy,08049,Auto-stop,4.941328,49.4327569
08049-C-002,Fontaine,21  rue principale,Bar-lès-Buzancy,08049,Auto-stop,4.942281,49.4337730
08049-C-003,Samaritaine,15  rue principale,Bar-lès-Buzancy,08049,Auto-stop,4.941616,49.4339300
08052-C-001,Grande rue,Face au 21  grande rue,Bayonville,08052,Auto-stop,5.00659,49.3966330
08052-C-002,Eglise,Angle de la rue derrière léglise et de la route de Buzancy,Bayonville,08052,Auto-stop,5.005431,49.3967660
08052-C-003,Lavoir,Angle de la rue de Genève et de la route de Buzancy,Bayonville,08052,Auto-stop,5.005265,49.3970560
08057-C-001,Salle polyvalente,Angle de la rue principale et de la rue Jean Ferry,Belleville-et-Châtillon-sur-Bar,08057,Auto-stop,4.8287004,49.4464752
08057-C-002,Place,Face au 31  rue principale,Belleville-et-Châtillon-sur-Bar,08057,Auto-stop,4.8291901,49.4467400
08057-C-003,Ecole,Angle de la rue principale et de la rue de Brieulles,Belleville-et-Châtillon-sur-Bar,08057,Auto-stop,4.8237722,49.4703615
08057-C-004,Saint Jean,Angle de le rue Saint Jean et de la rue principale,Belleville-et-Châtillon-sur-Bar,08057,Auto-stop,4.8238929,49.4699920
08057-C-005,EDPAMS,EDPAMS,Belleville-et-Châtillon-sur-Bar,08057,Auto-stop,4.8299662,49.4520348
08057-C-006,Terrain de foot,A langle de la RD42 et de la rue menant au gymnase,Belleville-et-Châtillon-sur-Bar,08057,Auto-stop,4.8301754,49.4519965
08059-C-001,Grange,Face au 8  rue principale,Belval-Bois-des-Dames,08059,Auto-stop,5.0362823,49.4690757
08059-C-002,Mairie,6  rue principale,Belval-Bois-des-Dames,08059,Auto-stop,5.0351236,49.4700415
08074-C-001,Croisette,Rue de la croisette,Bouconville,08074,Auto-stop,4.762316,49.2552680
08074-C-002,Mairie,Rue principale,Bouconville,08074,Auto-stop,4.763035,49.2542840
08075-C-001,Couleurs,13  rue Clarisse Laurent,Boult-aux-Bois,08075,Auto-stop,4.8377502,49.4316999
08075-C-002,Orge,Rue de la brasserie,Boult-aux-Bois,08075,Auto-stop,4.837648,49.4319030
08075-C-003,Commanderie,Rue de la Commanderie,Boult-aux-Bois,08075,Auto-stop,4.836173,49.4319560
08077-C-001,Serres,Face n°16  rue basse,Bourcq,08077,Auto-stop,4.631317,49.3859910
08077-C-002,Fraises,5  rue basse,Bourcq,08077,Auto-stop,4.630587,49.3856100
08082-C-001,Palestre,Entre les 11 et 17  rue de lAisne,Brécy-Brières,08082,Auto-stop,4.766479,49.3227510
08082-C-002,Eglise,Angle de la rue de Savigny et de la rue des brûlis,Brécy-Brières,08082,Auto-stop,4.741191,49.3335610
08082-C-003,Justine,Angle de la rue Justine et de la rue des brûlis,Brécy-Brières,08082,Auto-stop,4.7414654,49.3335045
08085-C-001,Kennedy,A langle de la place Kennedy,Brieulles-sur-Bar,08085,Auto-stop,4.8541583,49.4767048
08085-C-002,Terrasse,Rue du faubourg,Brieulles-sur-Bar,08085,Auto-stop,4.8501198,49.4766058
08085-C-003,Eiffel,Face au 15  rue du faubourg,Brieulles-sur-Bar,08085,Auto-stop,4.8495807,49.4757344
08085-C-004,Mémoire,Rue de la porte dAuthe,Brieulles-sur-Bar,08085,Auto-stop,4.8546322,49.4766972
08086-C-001,Ferme,Face au 9 route de Boult,Briquenay,08086,Auto-stop,4.8784472,49.4063224
08086-C-002,Place,Angle de la rue du Vivier et de la rue de Boult,Briquenay,08086,Auto-stop,4.8784278,49.4067757
08089-C-001,Champignon,Rue de la gare,Buzancy,08089,Auto-stop,4.9549113,49.4280153
08089-C-002,Ecole,Route dAnglure,Buzancy,08089,Auto-stop,4.9565724,49.4279473
08092-C-001,Place,Face au 2  rue St Christophe,Cauroy,08092,Auto-stop,4.469129,49.3477862
08092-C-002,Sapin,A langle du 10  route de Reims,Cauroy,08092,Auto-stop,4.4678257,49.3470020
08097-C-001,Jaurès,Face au 8  avenue Jean Jaurès,Challerange,08097,Auto-stop,4.745423,49.3105442
08097-C-002,Roxane,14  avenue Jean Jaurès,Challerange,08097,Auto-stop,4.7454504,49.3100629
08098-C-001,Moulin,2  rue du moulin,Champigneulle,08098,Auto-stop,4.9246908,49.3523623
08098-C-002,Wattignies,Rue de la boulette de Wattignies,Champigneulle,08098,Auto-stop,4.9243838,49.3519434
08098-C-003,Mairie,4  rue du brou Hulot,Champigneulle,08098,Auto-stop,4.927049,49.3512142
08104-C-001,Bibi,Angle de rue de la trèche et de la rue desson,Chardeny,08104,Auto-stop,4.6012954,49.4188564
08109-C-001,Mairie,Entre le 24 et le 26  rue  Laloy Chenet,Chatel-Chéhéry,08109,Auto-stop,4.953878,49.2819346
08109-C-002,Place,Rue Laloy Chenet,Chatel-Chéhéry,08109,Auto-stop,4.9540798,49.2818836
08116-C-001,Mairie,Place de la mairie,Bairon et ses environs,08116,Auto-stop,4.763618,49.5132064
08116-C-002,Abribus,A langle de la route de Sauville et de la rue de léglise,Bairon et ses environs,08116,Auto-stop,4.7415143,49.5516123
08116-C-003,Leus,Place de la mairie,Bairon et ses environs,08116,Auto-stop,4.7363921,49.4714428
08116-C-004,Parlement,Face n°6,place du Parlement Bairon et ses environs,08116,Auto-stop,4.7653385,49.5143473
08116-C-005,Coco,Rue du zouave coco,face à la rue du dindon Bairon et ses environs,08116,Auto-stop,4.7677927,49.5133030
08116-C-006,Bayard,Au niveau du 16,rue des 4 fils Aymon Bairon et ses environs,08116,Auto-stop,4.7691346,49.5146743
08120-C-001,Château,Rue principale,Chevières,08120,Auto-stop,4.8988931,49.3326195
08120-C-002,Mairie,Angle de la rue de la mairie et de la rue principale,Chevières,08120,Auto-stop,4.898604,49.3326840
08130-C-001,Boulanger,A langle de la rue principale et de la rue du boulanger,Contreuve,08130,Auto-stop,4.6246353,49.3608507
08130-C-002,Planchette,A langle de la rue Planchette et de la rue principale,Contreuve,08130,Auto-stop,4.6237367,49.3606113
08131-C-001,Château,Face au 15  rue basse,Cornay,08131,Auto-stop,4.9497,49.3024640
08131-C-002,Prieuré,15  rue basse,Cornay,08131,Auto-stop,4.949813,49.3023940
08135-C-001,Arbres,Angle de la rue des tilleuls et de la rue de la forêt,La Croix-aux-Bois,08135,Auto-stop,4.7933183,49.4023855
08135-C-002,Mairie,Rue de la forêt,La Croix-aux-Bois,08135,Auto-stop,4.7929611,49.4020901
08147-C-001,Retourne,Rue de la retourne,Dricourt,08147,Auto-stop,4.5119667,49.3958316
08147-C-002,Liberté,A langle des rues de la liberté et de la retourne,Dricourt,08147,Auto-stop,4.5124603,49.3959643
08164-C-001,Notre Dame,41  rue notre dame,Falaise,08164,Auto-stop,4.7295507,49.3785406
08164-C-002,Abribus,Rue notre dame,Falaise,08164,Auto-stop,4.7279421,49.3825274
08164-C-003,Bagot,Angle de la rue de notre dame et voie communale 1 dite de Bagot,Falaise,08164,Auto-stop,4.7288491,49.3776492
08164-C-004,Cerisier,Rue notre dame,Falaise,08164,Auto-stop,4.7281245,49.3825798
08171-C-001,Mairie,Angle de la rue Fernand Simon et de la rue de lAire.,Fléville,08171,Auto-stop,4.9696134,49.3052875
08171-C-002,Gîte,Rue Fernand Simon,Fléville,08171,Auto-stop,4.9697982,49.3053122
08176-C-001,Lavoir,A langle de la route de Buzancy et de la rue de la mairie,Fossé,08176,Auto-stop,5.0045422,49.4452665
08176-C-002,Ferme,A langle de la route de Buzancy et de la route de Nouart,Fossé,08176,Auto-stop,5.0054986,49.4456657
08186-C-001,Place,Face à langle de la rue principale et de la route de Briquenay,Germont,08186,Auto-stop,4.87772,49.4370590
08186-C-002,Gravières,Au niveau du 17  rue principale,Germont,08186,Auto-stop,4.877881,49.4369090
08198-C-001,Camping,Rue Bastide,Grandpré,08198,Auto-stop,4.8731417,49.3394043
08198-C-002,Pharmacie,Entre le 14 et le 16 rue chantereine,Grandpré,08198,Auto-stop,4.8722378,49.3413458
08198-C-003,Moulin,8 rue du moulin,Grandpré,08198,Auto-stop,4.8234853,49.3218364
08198-C-004,Montflix,Rue Montflix,Grandpré,08198,Auto-stop,4.8641275,49.3400361
08198-C-005,Eglise,Angle de la rue de léglise et de la route dOlizy,Grandpré,08198,Auto-stop,4.8217195,49.3222462
08198-C-006,Mémoire,Entre le 6 et le 8 rue Montflix.,Grandpré,08198,Auto-stop,4.8710924,49.3406272
08198-C-007,Château,Rue Montflix,Grandpré,08198,Auto-stop,4.8641199,49.3399715
08198-C-008,Fontaine,14  rue basse  08250 Termes,Grandpré,08198,Auto-stop,4.8246264,49.3235057
08200-C-001,Courtier,Route de Mazagran,Grivy-Loisy,08200,Auto-stop,4.6297287,49.4158857
08200-C-002,Pierre,Angle de la rue Richelet et de la rue des Erales,Grivy-Loisy,08200,Auto-stop,4.632829,49.4251970
08200-C-003,Vaire,Route de Mazagran,Grivy-Loisy,08200,Auto-stop,4.630469,49.4157270
08220-C-001,Marguerite,A côté du 17  rue de Vouziers,Hauviné,08220,Auto-stop,4.403506,49.3043840
08220-C-002,Neuville,18  rue de Vouziers,Hauviné,08220,Auto-stop,4.403425,49.3044750
08256-C-001,But,RD15,Liry,08256,Auto-stop,4.6629362,49.3076148
08256-C-002,Eglise,A l'intersection des rues du château  du montaigut et de léglise,Liry,08256,Auto-stop,4.657484,49.3090120
08256-C-003,Mairie,Sur la place de la mairie,Liry,08256,Auto-stop,4.658976,49.3074620
08259-C-001,Abribus,Rue du lavoir,Longwé,08259,Auto-stop,4.788489,49.3896710
08259-C-002,Prairie,Route de Quatre Champs,Longwé,08259,Auto-stop,4.788499,49.3904530
08264-C-001,Orme,A langle de la rue de lorme et de la rue des remparts,Machault,08264,Auto-stop,4.4991267,49.3572972
08264-C-002,Poète,A langle des rues de Guillaume de Machault et rue Caqué.,Machault,08264,Auto-stop,4.499878,49.3547620
08264-C-003,Quentin,Angle de la ruelle Quentin et du 33  rue Guillaume de Machault,Machault,08264,Auto-stop,4.4996503,49.3544708
08274-C-001,Eglise,A l'angle de la rue dOrthez et de la rue de léglise,Marcq,08274,Auto-stop,4.9247521,49.3197838
08274-C-002,Orthez,A l'angle du chemin du Bouvret et de la rue dOrthez,Marcq,08274,Auto-stop,4.9248383,49.3196417
08279-C-001,Saint Martin,Rue de Montplaisir,Mars-sous-Bourcq,08279,Auto-stop,4.642518,49.3967310
08279-C-002,Montplaisir,Rue de Montplaisir,Mars-sous-Bourcq,08279,Auto-stop,4.641203,49.3976490
08279-C-003,Verger,Rue du verger,Mars-sous-Bourcq,08279,Auto-stop,4.6385355,49.3959586
08280-C-001,Ecole,A l'angle de la rue principale et de la rue de lécole,Marvaux-Vieux,08280,Auto-stop,4.6803881,49.2897262
08280-C-002,Pommery,Près d'un corisement à la sortie du hameau de Vieux,Marvaux-Vieux,08280,Auto-stop,4.699321,49.2811710
08296-C-001,Clémenceau,A langle de lavenue Clémenceau et de la rue des écoles,Montcheutin,08296,Auto-stop,4.8206915,49.2912889
08296-C-002,Le Tigre,Au niveau du 27  avenue Clémenceau,Montcheutin,08296,Auto-stop,4.818385,49.2898870
08301-C-001,Aisne,Rue principale,Montgon,08301,Auto-stop,4.7137074,49.5048711
08303-C-001,Chêne,Rue du gros chêne,Monthois,08303,Auto-stop,4.7108005,49.3160644
08303-C-002,Mairie,10  rue des champs,Monthois,08303,Auto-stop,4.707931,49.3125860
08303-C-003,Mouton,A langle de la rue de lArgonne et de la rue mouton,Monthois,08303,Auto-stop,4.7094611,49.3110310
08303-C-004,Remuat,A langle de la rue Jacques dAllamont et rue Remuat,Monthois,08303,Auto-stop,4.709187,49.3126100
08308-C-001,Beuquette,Rue des monts,Mont-Saint-Martin,08308,Auto-stop,4.643049,49.3346350
08308-C-002,Prairie,A langle de la rue des monts et de la D21,Mont-Saint-Martin,08308,Auto-stop,4.6524101,49.3368396
08309-C-001,Retourne,Rue de la retourne,Mont-Saint-Remy,08309,Auto-stop,4.4824144,49.3887129
08309-C-002,Retourne 2,Rue de la retourne,Mont-Saint-Remy,08309,Auto-stop,4.4824913,49.3887122
08332-C-001,Saint-Roch,Rue de la fontaine,Oches,08332,Auto-stop,4.924579,49.5034720
08332-C-002,Fontaine,Grande rue,Oches,08332,Auto-stop,4.925163,49.5037850
08333-C-001,Couture,18  rue de la couture,Olizy-Primat,08333,Auto-stop,4.7731438,49.3477604
08333-C-002,PAD,RD946  Bois de Roucy,Olizy-Primat,08333,Auto-stop,4.792775,49.3503630
08333-C-003,Argonne,Face au 17  rue de lArgonne,Olizy-Primat,08333,Auto-stop,4.778289,49.3460564
08333-C-004,Etang,Face au 1  rue de lAisne,Olizy-Primat,08333,Auto-stop,4.7746581,49.3450179
08338-C-001,Lunettes,A langle de la rue principale et de la ruelle de la mairie,Pauvres,08338,Auto-stop,4.492094,49.4106630
08338-C-002,Foire,A langle de la rue principale et de la route de Juniville,Pauvres,08338,Auto-stop,4.490329,49.4109980
08350-C-001,Eglise,Face au 16  rue Saint Martin,Quatre-Champs,08350,Auto-stop,4.7665474,49.4449096
08350-C-002,Saint Martin,Entre le 16 et 18  rue Saint Martin,Quatre-Champs,08350,Auto-stop,4.7669198,49.4449464
08390-C-001,Eglise,Face au n°3  rue de léglise,Sainte-Marie,08390,Auto-stop,4.6685553,49.3717875
08390-C-002,Capharnaüm,Face au n°2  rue de léglise,Sainte-Marie,08390,Auto-stop,4.668664,49.3718810
08390-C-003,Vannerie,6 rue des vanniers,Sainte-Marie,08390,Auto-stop,4.6673088,49.3722594
08392-C-001,Roland Garros,9  rue Roland Garros,Saint-Morel,08392,Auto-stop,4.6953728,49.3375737
08392-C-002,Mairie,Rue Roland Garros.,Saint-Morel,08392,Auto-stop,4.6958322,49.3375265
08393-C-001,Vallée,Au 7  rue de la vallée,Saint-Pierre-à-Arnes,08393,Auto-stop,4.453986,49.2995049
08393-C-002,Châtelet,En face du 7  rue de la vallée,Saint-Pierre-à-Arnes,08393,Auto-stop,4.4538343,49.2996259
08394-C-001,Stonne,Du côté du 6  grand rue,Saint-Pierremont,08394,Auto-stop,4.9349101,49.4855461
08394-C-002,Lavoir,En face du 6  grand rue,Saint-Pierremont,08394,Auto-stop,4.934914,49.4853690
08405-C-001,Eglise,Angle de la rue de la mairie et de la petite rue perpendiculaire,Sauville,08405,Auto-stop,4.794116,49.5552600
08405-C-002,Bairon,Angle de la rue de Louvergny et de la rue du lac de Bairon,Sauville,08405,Auto-stop,4.793934,49.5552430
08406-C-001,Fourriaux,A l'angle de la rue des écoles et de la rue Clémence Fourriaux,Savigny-sur-Aisne,08406,Auto-stop,4.7266068,49.3602641
08406-C-002,Bagot,Relais de Bagot,Savigny-sur-Aisne,08406,Auto-stop,4.7096475,49.3703826
08406-C-003,Côme,Rue de la Côme,Savigny-sur-Aisne,08406,Auto-stop,4.7091617,49.3705599
08406-C-004,Prés,Rue des prés,Savigny-sur-Aisne,08406,Auto-stop,4.7270999,49.3605410
08407-C-001,Thuya,Face au 4  grande rue,Séchault,08407,Auto-stop,4.7350728,49.2647861
08407-C-002,Belle Etoile,Rue de la belle étoile,Séchault,08407,Auto-stop,4.7387927,49.2644022
08407-C-003,Oiseau,Grande rue,Séchault,08407,Auto-stop,4.7350243,49.2646040
08410-C-001,Daims,Face au 1  rue de lAidain,Semide,08410,Auto-stop,4.5830423,49.3418528
08424-C-001,Eglise,16  rue de la 6ème DIC,Sommauthe,08424,Auto-stop,4.984413,49.4927160
08424-C-002,Régate,3  rue de la 6ème DIC,Sommauthe,08424,Auto-stop,4.984226,49.4914620
08425-C-001,Ruhlmann,Rue Georges Ruhlmann,Sommerance,08425,Auto-stop,4.9849776,49.3282939
08425-C-002,Merle,Rue Georges Ruhlmann,Sommerance,08425,Auto-stop,4.9849616,49.3282484
08431-C-001,Eglise,Place Saint Rémi,Sugny,08431,Auto-stop,4.6566494,49.3585967
08431-C-002,Mairie,Place Saint Rémi,Sugny,08431,Auto-stop,4.6565352,49.3586250
08434-C-001,Château,Rue de la petite ville,Sy,08434,Auto-stop,4.868789,49.5153320
08434-C-002,Mairie,5  rue de la petite ville,Sy,08434,Auto-stop,4.868832,49.5157260
08437-C-001,Château,Angle de la D15 et D115,Tailly,08437,Auto-stop,5.080356,49.4345860
08437-C-002,Cookie,Andevanne,Tailly,08437,Auto-stop,5.0801619,49.3905731
08437-C-003,Palmier,Andevanne,Tailly,08437,Auto-stop,5.0800238,49.3905532
08437-C-004,Eglise,Rémonville,Tailly,08437,Auto-stop,5.0385186,49.3897769
08437-C-005,Tuileries,Les Tuileries,Tailly,08437,Auto-stop,5.0782032,49.4072232
08437-C-006,Fontaine,Rémonville,Tailly,08437,Auto-stop,5.0386528,49.3898258
08437-C-007,Eglise,Barricourt,Tailly,08437,Auto-stop,5.0517714,49.4253816
08437-C-008,Château 2,Angle de la D15 et D115,Tailly,08437,Auto-stop,5.080147,49.4345860
08437-C-009,Koala,Barricourt,Tailly,08437,Auto-stop,5.0522971,49.4261284
08439-C-001,Dugauguez,Rue Montluçon,Tannay,08439,Auto-stop,4.8333392,49.5256970
08439-C-002,Montluçon,Rue Montluçon,Tannay,08439,Auto-stop,4.8330781,49.5257078
08446-C-001,Courtoisie,A l'angle de la rue du poirier de cloche et de la ruelle courtoise,Thénorgues,08446,Auto-stop,4.9299376,49.4066499
08446-C-002,Eglise,Rue de léglise,Thénorgues,08446,Auto-stop,4.9297886,49.4062868
08446-C-003,Poirier,A l'angle de la rue du poirier de cloche et de la rue des roises,Thénorgues,08446,Auto-stop,4.9289787,49.4065155
08453-C-001,Forêt,A langle de la rue Quenotte et de la rue de léglise,Toges,08453,Auto-stop,4.775287,49.4245270
08455-C-002,Saint Amand,19  rue Saint Amand,Tourcelles-Chaumont,08455,Auto-stop,4.605707,49.4013460
08455-C-003,Mairie,22  rue de Saint Amand,Tourcelles-Chaumont,08455,Auto-stop,4.6037857,49.4015530
08461-C-001,Paquis,Rue du Paquis,Vandy,08461,Auto-stop,4.7037402,49.4349688
08461-C-002,Mairie,Place Roger Polet,Vandy,08461,Auto-stop,4.704031,49.4339690
08461-C-003,Aisne,Route de Vrizy,Vandy,08461,Auto-stop,4.703618,49.4344390
08464-C-001,Abeille,Entre le 2 et le 4  grande rue,Vaux-lès-Mouron,08464,Auto-stop,4.7836287,49.2998655
08464-C-002,Eglise,Face au 2  grande rue,Vaux-lès-Mouron,08464,Auto-stop,4.7837967,49.2999185
08470-C-001,Moulin,Face au 4.rue du moulin,Verpel,08470,Auto-stop,4.9333933,49.3841663
08470-C-002,Mairie,A l'angle de la rue place de la mairie et de la place de la mairie,Verpel,08470,Auto-stop,4.9337226,49.3836043
08470-C-003,Presbytère,Rue du grand pont,Verpel,08470,Auto-stop,4.9326104,49.3838285
08471-C-001,Eglise,Rue principale,Verrières,08471,Auto-stop,4.8725355,49.4938009
08471-C-002,Château,Au niveau du 11.rue principale,Verrières,08471,Auto-stop,4.8726686,49.4935562
08490-C-001,Carnot,Place Carnot,Vouziers,08490,Auto-stop,4.7008053,49.3976782
08490-C-002,Vannerie,Vrizy,Vouziers,08490,Auto-stop,4.6783771,49.4260429
08490-C-003,Busquet,A l'angle de la rue Augustine Busquet et de lavenue Charles de Gaulle,Vouziers,08490,Auto-stop,4.6990778,49.4128805
08490-C-004,Fusion,A langle de la rue de la fusion et de la rue verte,Vouziers,08490,Auto-stop,4.697165,49.4041840
08490-C-005,Cerf,Rue de la briqueterie,Vouziers,08490,Auto-stop,4.6800735,49.3953696
08490-C-006,Bouleau,Chestres,Vouziers,08490,Auto-stop,4.724781,49.4065820
08490-C-007,Gambetta,Rue Gambetta,Vouziers,08490,Auto-stop,4.702439,49.3916646
08490-C-008,Tchécoslovaquie,Terron,Vouziers,08490,Auto-stop,4.6954911,49.4524952
08490-C-009,Forteresse,6  rue forteresse,Vouziers,08490,Auto-stop,4.6776179,49.4250258
08490-C-010,Dora Levi,Rue verte,Vouziers,08490,Auto-stop,4.6976179,49.4030655
08490-C-011,Fleuriste,Rue Bournizet,Vouziers,08490,Auto-stop,4.6944873,49.3970337
08490-C-012,Prague,Terron,Vouziers,08490,Auto-stop,4.6956413,49.4525910
08490-C-013,Boeufs,A l'angle de la rue Gambetta et de la rue des bufs,Vouziers,08490,Auto-stop,4.702357,49.3915114
08490-C-014,Mont Blanc,Rue du Blanc Mont,Vouziers,08490,Auto-stop,4.6884135,49.3926081
08490-C-015,Avetant,A l'angle de la rue Bournizet et de la rue Avetant,Vouziers,08490,Auto-stop,4.702261,49.3972900
08490-C-016,Bournizet,Rue Bournizet,Vouziers,08490,Auto-stop,4.6945839,49.3971385
08490-C-017,Aisne,Au 4  rue de lAisne,Vouziers,08490,Auto-stop,4.7069229,49.3997775
08490-C-018,Rouyer,Blaise,Vouziers,08490,Auto-stop,4.6558981,49.3901709
08490-C-019,De Gaulle,A la fin de la rue de Condé et du début de l'avenue Charles de Gaulle,Vouziers,08490,Auto-stop,4.7019081,49.4050390
08490-C-020,Plumes,Rue du Blanc Mont,Vouziers,08490,Auto-stop,4.6882846,49.3916698
08490-C-021,Rouya,Vrizy,Vouziers,08490,Auto-stop,4.6785486,49.4240280
08490-C-022,Tribunal,Rue Gambetta,Vouziers,08490,Auto-stop,4.6998359,49.3957320
08490-C-023,Drouot,A l'angle de la rue de la fusion et de la rue Paul Drouot,Vouziers,08490,Auto-stop,4.6962299,49.4015762
08490-C-024,Port,Rue de lAisne,Vouziers,08490,Auto-stop,4.7065877,49.3997880
08490-C-025,Théline,Route de Reims  Blaise,Vouziers,08490,Auto-stop,4.6542405,49.3921018
08490-C-026,Vacances,Plac Jean Robic,Vouziers,08490,Auto-stop,4.699396,49.4128930
08490-C-027,Heren,Vrizy,Vouziers,08490,Auto-stop,4.6763547,49.4256992
08490-C-028,Bondon,Rue de Condé,Vouziers,08490,Auto-stop,4.7023274,49.3996857
08490-C-029,Campanules,A langle de lavenue Charles de Gaulle et de la rue des campanules,Vouziers,08490,Auto-stop,4.7011853,49.4069180
08490-C-030,Presse,A langle rue de la briqueterie et d'un chemin privé,Vouziers,08490,Auto-stop,4.679457,49.3951250
08490-C-031,Reims,A langle de la route de Reims et du chemin de Rouge côte  Blaise,Vouziers,08490,Auto-stop,4.6544551,49.3922677
09002-C-001,Aigues-vives - Sortie,Avenue du Huit Mai 1945,Aigues-Vives,09002,Auto-stop,1.878552,42.9952440
09039-C-001,Eglise,La Grand Rue,La Bastide-de-Bousignac,09039,Auto-stop,1.885944,43.0543360
09042-C-001,Côtes,Office du Tourisme,La Bastide-de-Sérou,09042,Auto-stop,1.4333776,43.0115777
09042-C-002,Stade,488 Roquebrune,La Bastide-de-Sérou,09042,Auto-stop,1.4257544,43.0095899
09042-C-003,Arrêt de bus Ségalas,Bus Ariège Durban Ségalas,La Bastide-de-Sérou,09042,Auto-stop,1.373876,43.0171655
09043-C-001,Place Pierre et Marie Curie,Avenue du 11 novembre 1918,La Bastide-sur-l'Hers,09043,Auto-stop,1.9065517,42.9551426
09048-C-001,Place Del Rey,Le village,Belloc,09048,Auto-stop,1.931479,43.0132160
09071-C-001,Embranchement D11/D117,101 Le Chateau Et La Grange,Cadarcet,09071,Auto-stop,1.51338,43.0106242
09071-C-002,Arrêt de bus (côté village),Bus Ariège Cadarcet,Cadarcet,09071,Auto-stop,1.4946879,43.0075426
09071-C-003,Abribus,Bus Ariège Cadarcet,Cadarcet,09071,Auto-stop,1.4938686,43.0072170
09071-C-004,Embranchement D11/D117,Ruisseau d'Aujole,Cadarcet,09071,Auto-stop,1.5136132,43.0102424
09082-C-001,Place de l'Eglise,148 Place De lEglise,Castelnau-Durban,09082,Auto-stop,1.3403844,43.0001722
09082-C-002,Aire des Platanes,148 Place De lEglise,Castelnau-Durban,09082,Auto-stop,1.3400721,43.0000754
09107-C-001,Dun,Rue des Pyrénées,Dun,09107,Auto-stop,1.800106,43.0280630
09108-C-001,Village,2 Chemin De Francou,Durban-sur-Arize,09108,Auto-stop,1.3436313,43.0199103
09108-C-002,Ségalas,12 Le Carrerot,Durban-sur-Arize,09108,Auto-stop,1.3700623,43.0153493
09110-C-001,Relais Vert Angle D33 D3,angle D33 D3,ENCOURTIECH,09110,Parking,1.177063,42.95658
09115-C-001,Place de la Mairie,Avenue de la mairie,Esclagne,09115,Auto-stop,1.848315,42.9808990
09161-C-001,Place du Praxinabel,Avenue Mathil,Léran,09161,Auto-stop,1.910451,42.9875546
09161-C-002,Avenue Saint-Roch,Avenue Saint-Roch,Léran,09161,Auto-stop,1.908123,42.9888590
09164-C-001,Pont,27 Lieu Dit La Baure,Lescure,09164,Auto-stop,1.2353218,43.0001453
09164-C-002,Croisement D117/D119,Bus Ariège Lescure,Lescure,09164,Auto-stop,1.2344412,43.0002925
09203-C-001,Arrêt de bus,Bus Ariège Montels,Montels,09203,Auto-stop,1.4738577,43.0066230
09203-C-002,Abribus (côté village),Bus Ariège Montels,Montels,09203,Auto-stop,1.4733509,43.0065570
09209-C-001,Aire de covoiturage de Montjoie,D627,MONTJOIE EN COUSERANS,09209,Aire de covoiturage,1.159709,42.992903
09209-C-002,Aire de covoiturage,Aire de covoiturage de Montjoie,Montjoie-en-Couserans,09209,Auto-stop,1.159757,42.9929771
09209-C-003,Village,59 Rue De La Mairie,Montjoie-en-Couserans,09209,Auto-stop,1.1596742,43.0010526
09213-C-001,Mairie,Route de Limoux,Moulin-Neuf,09213,Auto-stop,1.9444561,43.0742784
09229-C-001,Grand' Rue,Grand'Rue,Le Peyrat,09229,Auto-stop,1.9184715,42.9565050
09235-C-001,Parking Rue Nationale Rond Point D117E,D117E,PRAT BONREPAUX,09235,Parking,1.028528,43.032509
09244-C-001,En face Abri bus,Rue Juliette Giret,Rieucros,09244,Auto-stop,1.763778,43.0787080
09246-C-001,Arrêt de bus,Bus Ariège Rimont,Rimont,09246,Auto-stop,1.2794527,42.9945145
09246-C-002,Route de la Tranchée,11 Avenue De La Resistance,Rimont,09246,Auto-stop,1.2806275,42.9938004
09261-C-001,DEFA,5 Avenue de la Résistance,Saint-Girons,09261,Auto-stop,1.1445411,42.9795294
09261-C-002,Foirail,42 Boulevard Du Général De Gaulle,Saint-Girons,09261,Auto-stop,1.1508415,42.9812185
09261-C-003,Gare,Bus SNCF Gare Saint-Girons,Saint-Girons,09261,Auto-stop,1.1395432,42.9883469
09282-C-001,Parking Le Crieu,D820B4B,SAVERDUN,09282,Parking,1.605379,43.224094
09301-C-001,Aire de covoiturage de Kercabanac,D3,SOULAN,09301,Aire de covoiturage,1.214777,42.909095
09312-C-001,Parking Rond Point Intersection 29 D119,D29,LA TOUR DU CRIEU,09312,Parking,1.653904,43.098005
10003-C-001,Parking covoiturage D0031,D0031,AIX VILLEMAUR PALIS,10003,Parking,3.730838,48.222096
10018-C-001,Parking covoiturage D0374,D0374,AUXON,10018,Parking,3.9183815,48.1031225
10033-C-001,Parking D0004B,D0004B,BAR SUR AUBE,10033,Parking,4.7075607,48.2299391
10033-C-002,Parking D0013,D0013,BAR SUR AUBE,10033,Parking,4.715208,48.2304895
10051-C-001,Parking covoiturage D0072A,D0072A,BOUILLY,10051,Parking,3.99851,48.19473
10076-C-001,Parking D0012,D0012,CHAMPIGNOL LEZ MONDEVILLE,10076,Parking,4.669801,48.136313
10080-C-001,Parking covoiturage D0444,D0444,CHAOURCE,10080,Parking,4.142812,48.059664
10110-C-001,Parking D0619,D0619,COURTERANGES,10110,Parking,4.24105,48.2614815
10123-C-001,Parking D0011,D0011,DIENVILLE,10123,Parking,4.5322561,48.349037
10142-C-001,Parking covoiturage D0023,D0023,ESTISSAC,10142,Parking,3.800577,48.273648
10169-C-001,Parking D0439,D0439,GUMERY,10169,Parking,3.432926,48.452408
10178-C-001,Parking D0018,D0018,JESSAINS,10178,Parking,4.5776543,48.2968746
10203-C-001,Parking D0012B,D0012B,LONGCHAMP SUR AUJON,10203,Parking,4.832616,48.15078
10216-C-001,Parking D0009,D0009,MAILLY LE CAMP,10216,Parking,4.215609,48.664207
10260-C-001,Parking D0085,D0085,MOUSSEY,10260,Parking,4.097443,48.2121685
10265-C-001,Parking D0060B,D0060B,LES NOES PRES TROYES,10265,Parking,4.0419535,48.3029485
10268-C-001,Parking D0619,D0619,NOGENT SUR SEINE,10268,Parking,3.4781755,48.4882415
10268-C-002,Parking D0919,D0919,NOGENT SUR SEINE,10268,Parking,3.5130855,48.4928405
10288-C-001,Parking D0671,D0671,PLAINES ST LANGE,10288,Parking,4.483251,47.9937755
10289-C-001,Parking D0056,D0056,PLANCY L ABBAYE,10289,Parking,3.9600325,48.5717405
10300-C-001,Parking D0148,D0148,POUGY,10300,Parking,4.3579075,48.443182
10321-C-001,Parking D0053,D0053,LA RIVIERE DE CORPS,10321,Parking,4.0300799,48.2876515
10333-C-001,Parking D0041,D0041,ST ANDRE LES VERGERS,10333,Parking,4.051245,48.285055
10367-C-001,Parking D0176,D0176,LA SAULSOTTE,10367,Parking,3.500565,48.5427795
10389-C-001,Parking D0046,D0046,UNIENVILLE,10389,Parking,4.55046,48.3261635
11058-C-001,Aire de covoiturage de Cailhau,D18,CAILHAU,11058,Aire de covoiturage,2.11684,43.13378
11069-C-001,Aire de covoiturage du Rond-Point George Pompidou,D6113,CARCASSONNE,11069,Aire de covoiturage,2.33082,43.22703
11076-C-001,Parking de covoiturage de Castelnaudary,A61 Sortie 21 Castelnaudary,CASTELNAUDARY,11076,Aire de covoiturage,1.951646,43.292797
11079-C-001,Aire de covoiturage Maison de La Montagne Noire,D118,CAUDEBRONDE,11079,Aire de covoiturage,2.30058,43.36722
11144-C-001,SPAR,rue Isabelle d'Aragon,FITOU,11144,Aire de covoiturage,2.993649,42.894984
11203-C-001,Aire de covoiturage de Lézignan-Corbiéres,D611,LEZIGNAN CORBIERES,11203,Aire de covoiturage,2.74114,43.17289
11209-C-001,Aire de covoiturage de Luc-Sur-Aude,D118,LUC SUR AUDE,11209,Aire de covoiturage,2.26009,42.95851
11262-C-001,Aire de covoiturage de Narbonne,D6009,NARBONNE,11262,Aire de covoiturage,2.98888,43.16498
11371-C-001,Aire de covoiturage de Salles-Sur-L'Hers,D625,SALLES SUR L HERS,11371,Aire de covoiturage,1.78192,43.29523
11429-C-001,Aire de covoiturage de Villemoustaussou,D118,VILLEMOUSTAUSSOU,11429,Aire de covoiturage,2.38196,43.24309
12002-C-001,Aire de la Gamasse,Croisement RD29-A7,AGUESSAC,12002,Parking,3.038912,44.177543
12002-C-002,La Borie Sèche,Départementale 809,Aguessac,12002,Auto-stop,3.08602,44.1640300
12002-C-003,Place du Murier,Avenue des Causses,Aguessac,12002,Auto-stop,3.097955,44.1536000
12002-C-004,Route des Gorges du Tarn,Route des Gorges du Tarn,Aguessac,12002,Auto-stop,3.10028,44.1577900
12002-C-005,Pharmacie,Avenue des Causses,Aguessac,12002,Auto-stop,3.09787,44.1542000
12002-C-006,Passage voie ferrée,Avenue des Causses,Aguessac,12002,Auto-stop,3.09759,44.1575600
12004-C-001,Carrefour de l'Etoile,Carrefour de l'Etoile 12300 ALMONT LES JUNIES,Almont-les-Junies,12004,Auto-stop,2.294099,44.6056770
12004-C-002,Carrefour de l'Etoile,Carrefour de l'Etoile 12300 ALMONT LES JUNIES,Almont-les-Junies,12004,Auto-stop,2.2936,44.6053720
12013-C-002,Arrêt du Lycée 3,Citée de la poudrière,Aubin,12013,Auto-stop,2.2428126,44.5305217
12013-C-003,Les Lilas - Vers Firmi,Avenue des Myosotis,Aubin,12013,Auto-stop,2.2658552,44.5394390
12013-C-004,Pont de Labro vers Aubin,Rue Jean Moulin,Aubin,12013,Auto-stop,2.254874,44.5282670
12013-C-007,Pont de Labro vers Cransac,Avenue Jean Moulin,Aubin,12013,Auto-stop,2.25496,44.5281660
12013-C-008,Place de la République - vers Aubin centre,Rue Jules Guesde,Aubin,12013,Auto-stop,2.2633983,44.5281354
12013-C-010,Place de la République - Abribus TUB,Rue Jules Guesdes,Aubin,12013,Auto-stop,2.263645,44.5281300
12013-C-012,Les Lilas - Vers Cérons,Avenue des Myosotis,Aubin,12013,Auto-stop,2.2657532,44.5395422
12016-C-001,Cote d'Hymes,Croisement RD 840-,AUZITS,12016,Parking,2.354438,44.513992
12028-C-001,Abribus du Département,Rue du château Bas,Boisse-Penchot,12028,Auto-stop,2.2059966,44.5905264
12028-C-002,Entrée Bourg,Rue des deux Ponts,Boisse-Penchot,12028,Auto-stop,2.2029871,44.5844328
12028-C-004,Ancienne poste,Rue de la Gilardie,Boisse-Penchot,12028,Auto-stop,2.2038615,44.5856057
12030-C-002,Intersection après la gare,Saint-Matin,Bouillac,12030,Auto-stop,2.1596676,44.5706960
12033-C-001,Aire de covoiturage de Curlande Cd12,Déviation de Curlande,BOZOULS,12033,Aire de covoiturage,2.680768,44.436836
12042-C-001,Le Viala du Dourdou,Le Viala du Dourdou,Calmels-et-le-Viala,12042,Auto-stop,2.7518784,43.9460593
12042-C-002,La Borie,La Borie,Calmels-et-le-Viala,12042,Auto-stop,2.7602952,43.9518738
12043-C-001,Aire des Molinieres,Les Molinieres,CALMONT,12043,Aire de covoiturage,2.509183,44.285335
12054-C-001,Parking Croisement 911-544E2,Croisement RD 544,LA CAPELLE BLEYS,12054,Parking,2.173771,44.307841
12059-C-001,Parking D997 Le Poteau de Sauveterre,Poteau de Sauveterre,CASTANET,12059,Parking,2.324752,44.316144
12063-C-001,Parking la Cavalerie,ZA Millau Larzac,LA CAVALERIE,12063,Parking,3.142061,44.016654
12063-C-002,La Poste,Route du Grand Chemin,La Cavalerie,12063,Auto-stop,3.153912,44.0088673
12063-C-003,Avenue du 122e Ri - direction centre,Avenue du 122e Ri,La Cavalerie,12063,Auto-stop,3.1679483,44.0092352
12063-C-004,Echangeur D999,Route départementale 999,La Cavalerie,12063,Auto-stop,3.1383599,44.0113279
12063-C-005,Embranchement Sainte Eulalie de Cernon,RD 277,La Cavalerie,12063,Auto-stop,3.1523418,44.0088953
12063-C-006,Avenue du 122e Ri - direction Nant,Avenue du 122e Ri,La Cavalerie,12063,Auto-stop,3.172617,44.0097013
12063-C-007,Echangeur D809,Route départementale 809,La Cavalerie,12063,Auto-stop,3.1415949,44.0135036
12063-C-008,Rue basse - direction centre,Rue basse,La Cavalerie,12063,Auto-stop,3.1575353,44.0090332
12063-C-009,Echangeur D809,Route départementale 809,La Cavalerie,12063,Auto-stop,3.1412123,44.0136554
12063-C-010,Place de la Mairie - direction Nant,Place de la Mairie,La Cavalerie,12063,Auto-stop,3.1582016,44.0089618
12063-C-011,ZA Millau Larzac,Route de Millau,La Cavalerie,12063,Auto-stop,3.1495321,44.0142858
12063-C-012,Pharmacie,Route de Millau,La Cavalerie,12063,Auto-stop,3.1535017,44.0095342
12063-C-013,Echangeur D999,Route départementale 999,La Cavalerie,12063,Auto-stop,3.1388905,44.0114345
12066-C-001,Panat,Panat,Clairvaux-d'Aveyron,12066,Auto-stop,2.427265,44.4309530
12066-C-002,Mairie,avenue de la tour,Clairvaux-d'Aveyron,12066,Auto-stop,2.4110125,44.4277641
12066-C-003,Arrêt de la Tour,avenue de la Tour,Clairvaux-d'Aveyron,12066,Auto-stop,2.4109749,44.4269596
12066-C-004,Bruéjouls,Place de la paix Bruéjouls,Clairvaux-d'Aveyron,12066,Auto-stop,2.4206899,44.4142011
12066-C-005,Bruéjouls,Place du Mansois Bruéjouls,Clairvaux-d'Aveyron,12066,Auto-stop,2.4202285,44.4130515
12068-C-001,Le Poteau de Colombies,Poteau de Colombies,COLOMBIES,12068,Parking,2.348287,44.315909
12070-C-001,Pailhas dir. Gorges du Tarn,Route de Pailhas,Compeyre,12070,Auto-stop,3.11888,44.1682000
12070-C-002,Compeyre,Rue de la Coste,Compeyre,12070,Auto-stop,3.09923,44.1612500
12070-C-003,Le Mas dir. Millau,Route du Lemencon,Compeyre,12070,Auto-stop,3.1064,44.1590800
12070-C-004,Le Mas dir. gorges,Route du Lemencon,Compeyre,12070,Auto-stop,3.1057,44.1588300
12070-C-005,Pailhas dir. Millau,Route de Pailhas,Compeyre,12070,Auto-stop,3.11617,44.1678000
12072-C-001,Comprégnac dir. Millau,Départementale 41,Comprégnac,12072,Auto-stop,2.96347,44.0857000
12072-C-002,Peyre dir. Comprégnac,Rue de la callade du Tarn,Comprégnac,12072,Auto-stop,2.997544,44.0900000
12072-C-003,Compégnac dir. St Rome,Route de la pierre blanche,Comprégnac,12072,Auto-stop,2.959,44.0831750
12072-C-004,Peyre dir. Millau,Départementale 41,Comprégnac,12072,Auto-stop,3.00078,44.0914100
12073-C-001,Parking D82 Chemin de L'abbaye,Chemin de L'Abbaye,COMPS LA GRAND VILLE,12073,Parking,2.565642,44.233621
12076-C-001,Saint Cyprien école,Rue de la croix d'Issalys Saint Cyprien,Conques-en-Rouergue,12076,Auto-stop,2.408683,44.5467090
12076-C-003,Place de l'étoile,place de l'étoile,Conques-en-Rouergue,12076,Auto-stop,2.3941146,44.5986748
12076-C-004,Noailhac,Noailhac,Conques-en-Rouergue,12076,Auto-stop,2.3744164,44.5662059
12076-C-005,Conques haut,D 42,Conques-en-Rouergue,12076,Auto-stop,2.402728,44.5992650
12076-C-006,Saint Cyprien Route de Rodez,Route de Rodez,Conques-en-Rouergue,12076,Auto-stop,2.41004,44.5457920
12076-C-007,Conques faubourg,Parking du molin neuf le faubourg,Conques-en-Rouergue,12076,Auto-stop,2.392911,44.5987140
12076-C-008,Saint Cyprien Parking Régis,Rue des Canals Saint Cyprien,Conques-en-Rouergue,12076,Auto-stop,2.411145,44.5457040
12076-C-009,Grand Vabre Mairie,les landes,Conques-en-Rouergue,12076,Auto-stop,2.358291,44.6292281
12076-C-010,Saint Cyprien Route de Rodez,Route de Rodez Saint Cyprien,Conques-en-Rouergue,12076,Auto-stop,2.410303,44.5473670
12076-C-011,Grand Vabre école,les landes Grand Vabre,Conques-en-Rouergue,12076,Auto-stop,2.358407,44.6291070
12077-C-001,Parking les Places D65,Les Places,CORNUS,12077,Parking,3.21341,43.949513
12077-C-002,Avenue Louis Alexis Delmas,Avenue Louis Alexis Delmas,Cornus,12077,Auto-stop,3.1787585,43.9006644
12077-C-003,Rue du quai,Rue du quai,Cornus,12077,Auto-stop,3.1784539,43.9034472
12077-C-004,Rond point des places,Route départementale 65,Cornus,12077,Auto-stop,3.2131194,43.9487766
12080-C-001,Supérette Utile,Route de Montclar,Coupiac,12080,Auto-stop,2.58629,43.9545200
12080-C-002,Boulangerie,Route du clos le bourg,Coupiac,12080,Auto-stop,2.58019,43.9542800
12080-C-003,Grand parking du centre,Avenue Raymond Bel,Coupiac,12080,Auto-stop,2.58191,43.9545400
12083-C-001,La Treille,Avenue Jean Moulin,Cransac,12083,Auto-stop,2.277431,44.5253190
12083-C-002,Maison de santé du Gua,Avenue du 19 Mars 1962,Cransac,12083,Auto-stop,2.268087,44.5267380
12083-C-003,Cransac Centre - La Poste,Avenue Jean Jaurès,Cransac,12083,Auto-stop,2.282871,44.5256590
12083-C-004,Cransac Centre - Mairie,Avenue Jean Jaures,Cransac,12083,Auto-stop,2.2824098,44.5256801
12083-C-005,Le Tulipier,Rue du Général Artous,Cransac,12083,Auto-stop,2.281267,44.5250390
12083-C-006,Place la treille - Direction Cransac Centre,Avenue Jean Moulin,Cransac,12083,Auto-stop,2.277689,44.5252690
12084-C-001,Rond-point Leclerc,Départementale 992,Creissels,12084,Auto-stop,3.04239,44.0818000
12084-C-002,Raujolles,Départementale 992,Creissels,12084,Auto-stop,3.04656,44.0824000
12084-C-003,Raujolles bis,Boulevard Raymond VII,Creissels,12084,Auto-stop,3.04599,44.0818000
12084-C-004,Place du 19 mars,Avenues des comtes d'Armagnac,Creissels,12084,Auto-stop,3.06137,44.0854400
12084-C-005,La poste,Avenues des comtes d'Armagnac,Creissels,12084,Auto-stop,3.06054,44.0854200
12084-C-006,Charles de Gaulle,Avenue Charles de Gaulle,Creissels,12084,Auto-stop,3.067618,44.0896000
12086-C-001,Abribus,Départementale 512,La Cresse,12086,Auto-stop,3.12806,44.1779000
12086-C-002,Cimetière,Départementale 187,La Cresse,12086,Auto-stop,3.1305,44.1762000
12089-C-001,Les Estaques,Route de Flagnac - Côtes des Estaques,Decazeville,12089,Auto-stop,2.244392,44.5760100
12089-C-002,Avenue Adam Grange,Avenue Victor Hugo,Decazeville,12089,Auto-stop,2.238475,44.5628860
12089-C-003,Nantuech,Côte des Estaques,Decazeville,12089,Auto-stop,2.243909,44.5743820
12089-C-004,Miramont,Rue de Miramont,Decazeville,12089,Auto-stop,2.25172,44.5537430
12089-C-005,Fontvergnes,Rond point de Fontvergnes,Decazeville,12089,Auto-stop,2.26578,44.5569310
12089-C-006,Fontvergnes,rond point Fontvergnes,Decazeville,12089,Auto-stop,2.2642029,44.5572006
12089-C-007,Gendarmerie,Rond point Gendarmerie,Decazeville,12089,Auto-stop,2.255121,44.5606445
12089-C-008,Point de vue - Les Estaques,Les Estaques,Decazeville,12089,Auto-stop,2.2439201,44.5771884
12089-C-009,La Vitarelle,Rond Point Vitarelle,Decazeville,12089,Auto-stop,2.248308,44.5627940
12090-C-001,Aire du Pas,Le Pas,DRUELLE,12090,Aire de covoiturage,2.451627,44.38001
12094-C-001,Parking Rodiez D920,Avenue de Rodiez,ENTRAYGUES SUR TRUYERE,12094,Parking,2.571188,44.638424
12100-C-001,Cerles,Rue Jean moulin,Firmi,12100,Auto-stop,2.319499,44.5346000
12100-C-002,Château du Claux - Dir Decazeville,34 Avenue du 10 Août 1944,Firmi,12100,Auto-stop,2.3278625,44.5278944
12100-C-003,Château du Claux,26 Avenue du 10 août,Firmi,12100,Auto-stop,2.3266501,44.5285140
12100-C-004,Puy de Wolf,RD 840,Firmi,12100,Auto-stop,2.3029663,44.5460782
12101-C-001,Parking Flagnac,Croisement D963-D508,FLAGNAC,12101,Parking,2.243041975,44.60498366
12101-C-002,Ecole d'Agnac,Route de Saint Jacques - Agnac,Flagnac,12101,Auto-stop,2.2717239,44.5741640
12101-C-003,Abris bus - Déviation Flagnac,134 Route de la Prade,Flagnac,12101,Auto-stop,2.2498171,44.6068918
12101-C-004,Ecole d'Agnac,Route de Saint Jacques - Agnac,Flagnac,12101,Auto-stop,2.272153,44.5742400
12104-C-001,Parking Causse-et-Diége D922,Gelles,FOISSAC,12104,Parking,2.029211,44.513677
12105-C-001,Parking D922 La Fouillade,Bourg de La Fouillade,LA FOUILLADE,12105,Parking,2.040481,44.228511
12115-C-001,Croisement route nationale Grand rue,route nationale,L'Hospitalet-du-Larzac,12115,Auto-stop,3.196625,43.9732600
12115-C-002,Place des cygnes,Place des cygnes,L'Hospitalet-du-Larzac,12115,Auto-stop,3.193474,43.9734230
12130-C-001,Le Couderc,Avenue Paul Ramadier,Livinhac-le-Haut,12130,Auto-stop,2.2282452,44.5922493
12130-C-002,Paul Ramadier,Avenue Paul Ramadier,Livinhac-le-Haut,12130,Auto-stop,2.232381,44.5996310
12130-C-003,La Lande,Rue François Fabié,Livinhac-le-Haut,12130,Auto-stop,2.236383,44.5938308
12136-C-001,Aire de Maleville,Croisement RD 539,MALEVILLE,12136,Parking,2.090396,44.405197
12138-C-001,Marcillac Route de Rodez,Rotre de Rodez,Marcillac-Vallon,12138,Auto-stop,2.465503,44.4728110
12138-C-003,Route de Rodez aire de covoiturage,Route de Rodez,Marcillac-Vallon,12138,Auto-stop,2.465529,44.4714220
12138-C-004,Av Gustave Bessière,av Gustave Bessière,Marcillac-Vallon,12138,Auto-stop,2.461152,44.4745150
12138-C-005,Maison de la Communauté des Communes/ centre de secours,rue Gustave Bessière,Marcillac-Vallon,12138,Auto-stop,2.455503,44.4767650
12141-C-001,Mairie,Le Bourg,Martrin,12141,Auto-stop,2.62067,43.9387200
12141-C-002,Sortie Coupiac,Départementale 90,Martrin,12141,Auto-stop,2.61848,43.9396000
12142-C-001,Mayran,Croisement RD 285,MAYRAN,12142,Parking,2.365688,44.399167
12145-C-001,Aire de St Germain,St Germain,MILLAU,12145,Parking,3.031685,44.133401
12145-C-002,Millau plage,Giratoire du confluent,Millau,12145,Auto-stop,3.0886926,44.1036870
12145-C-004,Forêt de cade,Route du Causse Noir,Millau,12145,Auto-stop,3.1123263,44.1189128
12145-C-005,Pouncho d'Agast,Giratoire du confluent,Millau,12145,Auto-stop,3.089543,44.1035050
12145-C-006,Av. Aigoual,Avenue de l'Aigoual,Millau,12145,Auto-stop,3.091123,44.1027950
12145-C-008,Chemin des Bouysses,Avenue de l'Aigoual,Millau,12145,Auto-stop,3.1042975,44.1006939
12145-C-009,Le Crès,Route de Cahors,Millau,12145,Auto-stop,3.0661377,44.1168500
12145-C-010,Giratoire du Larzac,Avenue du Languedoc,Millau,12145,Auto-stop,3.08236,44.0913000
12145-C-011,Chayran,Avenue Edouard Alfred Martel,Millau,12145,Auto-stop,3.086343,44.1190030
12145-C-012,Hôpital du Larzac,D809,Millau,12145,Auto-stop,3.1209849,44.0799410
12145-C-013,Massebiau,Route de Millau à Nant,Millau,12145,Auto-stop,3.1261334,44.1016964
12145-C-014,Boulevard J. Gabriac,Boulevard Jean Gabriac,Millau,12145,Auto-stop,3.07262,44.0935225
12145-C-015,Avenue de Guyenne,Avenue de Guyenne,Millau,12145,Auto-stop,3.07283,44.0908000
12145-C-016,Puech d'Andan,Boulevard du Puech d'Andan,Millau,12145,Auto-stop,3.083269,44.1162920
12145-C-018,Le Mona,Route de Millau à Nant,Millau,12145,Auto-stop,3.1382355,44.1087793
12145-C-019,Lycée/Hôpital,Boulevard de Bad Salzuflen,Millau,12145,Auto-stop,3.0580818,44.0941254
12145-C-020,Atterissage parapente,Avenue Millau Plage,Millau,12145,Auto-stop,3.0873096,44.1153658
12145-C-022,Saint-Estève/Le Golf,Avenue de Millau Plage,Millau,12145,Auto-stop,3.0863,44.1132519
12156-C-001,Parking D921 Montpeyroux,Croisement RD 70 St Remy,MONTPEYROUX,12156,Parking,2.817685,44.622863
12160-C-001,Aire de Laubigue,Juste aprés la sortie D192,MOSTUEJOULS,12160,Parking,3.189076,44.198124
12160-C-002,Mostuéjouls,Rue des jardins,Mostuéjouls,12160,Auto-stop,3.184,44.2022800
12160-C-003,Liaucous,Départementale 192,Mostuéjouls,12160,Auto-stop,3.193,44.2030800
12160-C-004,Arrêt relais,Départementale 907,Mostuéjouls,12160,Auto-stop,3.189348,44.1979700
12165-C-001,Mairie Muret le Chateau,le bourg,Muret-le-Château,12165,Auto-stop,2.573703,44.4940330
12165-C-002,les Espeyroux D13,Les Espeyroux,Muret-le-Château,12165,Auto-stop,2.5649,44.4888370
12165-C-003,Les Espeyroux D 227,Les Espeyroux,Muret-le-Château,12165,Auto-stop,2.563258,44.4864030
12165-C-004,Le Causse,Le Causse,Muret-le-Château,12165,Auto-stop,2.56836,44.4790080
12165-C-005,Les Boutets,Les Boutets,Muret-le-Château,12165,Auto-stop,2.553141,44.5010970
12168-C-001,Les Liquisses Basses,Route Départementale 999,Nant,12168,Auto-stop,3.251164,44.0267640
12168-C-002,Les Liquisses Hautes,Les Liquisses Hautes - Route départementale 999,Nant,12168,Auto-stop,3.2440971,44.0256897
12168-C-003,Nant centre - direction Millau,Route neuve,Nant,12168,Auto-stop,3.3018048,44.0228963
12168-C-004,Piscine,Rue du Faubourg Bas,Nant,12168,Auto-stop,3.3043866,44.0200135
12168-C-005,Route de Millau,Route de Millau,Nant,12168,Auto-stop,3.299901,44.0240980
12168-C-006,Chemin des Noyers,Route de la Mouline,Nant,12168,Auto-stop,3.304635,44.0193789
12168-C-007,Nant centre,Route neuve,Nant,12168,Auto-stop,3.301635,44.0228460
12168-C-008,Les Liquisses Basses,Route départementale 999,Nant,12168,Auto-stop,3.251247,44.0268970
12168-C-009,Les Liquisses Hautes,Les Liquisses Hautes - Route départementale 999,Nant,12168,Auto-stop,3.2439382,44.0257705
12168-C-010,Route des Liquisses,Route des Liquisses,Nant,12168,Auto-stop,3.295656,44.0230890
12176-C-001,Parking route du chéteau D568,Croisement 901-568 é cété d'Hostellerie de Fontanges,ONET LE CHATEAU,12176,Parking,2.563693601,44.3788943
12176-C-002,Aire de la Croix blanche,La Croix Blanche,ONET LE CHATEAU,12176,Parking,2.52149,44.385137
12177-C-001,Aire du Pont de PALMAS,Croisement RD 602,PALMAS D AVEYRON,12177,Parking,2.836789,44.398314
12178-C-001,Maison de la cerise,Route de Paulhe,Paulhe,12178,Auto-stop,3.102448,44.1513000
12178-C-002,Arrêt de bus,Route de Paulhe,Paulhe,12178,Auto-stop,3.10271,44.1511050
12178-C-003,Le Théron - Carbassas,Route de Millau plage,Paulhe,12178,Auto-stop,3.10304,44.1425000
12180-C-001,Peyreleau,Le Bourg,Peyreleau,12180,Auto-stop,3.20845,44.1880400
12183-C-001,Point Info,Avenue de Curvalle,Plaisance,12183,Auto-stop,2.54616,43.9269500
12183-C-002,Mairie,12 Route de Coupiac,Plaisance,12183,Auto-stop,2.54802,43.9282000
12195-C-001,Aire des Rougier D32,Croisement RD 32,REBOURGUIL,12195,Parking,2.756709,43.870337
12195-C-002,Parking Station de service Avia - Rebourguil,Parc d'activité Saint-Pierre - D999,REBOURGUIL,12195,Parking,2.77644,43.875459
12200-C-001,Le Bourg,Route du Bourg,Rivière-sur-Tarn,12200,Auto-stop,3.13262,44.2223500
12200-C-002,Fontaneilles,Route de Fontaneilles,Rivière-sur-Tarn,12200,Auto-stop,3.12949,44.1984000
12200-C-003,Place de la Fontaine,Route des Gorges du Tarn,Rivière-sur-Tarn,12200,Auto-stop,3.13194,44.1883500
12200-C-004,Route de Millau,Route de Millau,Rivière-sur-Tarn,12200,Auto-stop,3.13012,44.1879000
12200-C-005,Boyne dir.Millau,Route de Boyne,Rivière-sur-Tarn,12200,Auto-stop,3.15848,44.2036450
12200-C-006,Boyne Auberge des gorges au viaduc,Route de Boyne,Rivière-sur-Tarn,12200,Auto-stop,3.15953,44.2025000
12203-C-001,Avenue de Lauras,31 Avenue de Lauras,Roquefort-sur-Soulzon,12203,Auto-stop,2.986958,43.9781870
12203-C-002,Lauras,Avenue de Moussac,Roquefort-sur-Soulzon,12203,Auto-stop,2.9613268,43.9746664
12203-C-003,Lauras,Avenue de Moussac,Roquefort-sur-Soulzon,12203,Auto-stop,2.9613697,43.9731299
12203-C-004,Place de l'Eglise,Place de l'Eglise,Roquefort-sur-Soulzon,12203,Auto-stop,2.990241,43.9758901
12203-C-005,Office de Tourisme,45 Avenue de Lauras  Abribus Office de Tourisme,Roquefort-sur-Soulzon,12203,Auto-stop,2.9819262,43.9808892
12204-C-001,Pierrefiche du Larzac,Le Bourg,La Roque-Sainte-Marguerite,12204,Auto-stop,3.21718,44.1078000
12204-C-002,Pont de la Dourbie,Départementale 991,La Roque-Sainte-Marguerite,12204,Auto-stop,3.22156,44.1233000
12204-C-003,Route des gorges de la Dourbie,Départementale 991,La Roque-Sainte-Marguerite,12204,Auto-stop,3.22633,44.1251500
12204-C-004,Pierre fiche du Larzac,La Borie,La Roque-Sainte-Marguerite,12204,Auto-stop,3.2151,44.1043000
12208-C-001,Aire du Dolmen,Croisement RD 250,ST AFFRIQUE,12208,Parking,2.935273,43.989919
12208-C-002,Les Méjalies,Route de Couat,Saint-Affrique,12208,Auto-stop,2.8925333,43.9452446
12208-C-003,Boulevard de la République,Boulevard de la République  Croisement Boulevard Victor Hugo,Saint-Affrique,12208,Auto-stop,2.887126,43.9581900
12208-C-004,Lycée Jean Jaurès,Avenue Jean Jaurès,Saint-Affrique,12208,Auto-stop,2.89587,43.9491842
12208-C-005,Gymnase,Rue des 12 Etoiles,Saint-Affrique,12208,Auto-stop,2.8939066,43.9509839
12208-C-006,ZA Bourguet,Le Vern,Saint-Affrique,12208,Auto-stop,2.8571067,43.9552706
12208-C-007,Stade Nautique Intercommunal,Boulevard de la Capelle,Saint-Affrique,12208,Auto-stop,2.8924046,43.9523433
12208-C-008,Tiergues - Covoiturage,Croisement D250/D999,Saint-Affrique,12208,Auto-stop,2.9307065,43.9942306
12208-C-009,Savignac,Route de Bournac,Saint-Affrique,12208,Auto-stop,2.8362928,43.9600590
12208-C-010,Gare Routière,Boulevard Aristide Briand  12400 Saint-Affrique,Saint-Affrique,12208,Auto-stop,2.881898,43.9567993
12208-C-011,Centre Hospitalier,Avenue Lucien Galtier,Saint-Affrique,12208,Auto-stop,2.8754691,43.9572343
12208-C-012,ZA Bourguet,Le Vern,Saint-Affrique,12208,Auto-stop,2.8551433,43.9546682
12208-C-013,Tiergues Giratoire,Tiergues,Saint-Affrique,12208,Auto-stop,2.9349552,43.9859250
12208-C-014,Les Cazes,Boulevard de la Résistance,Saint-Affrique,12208,Auto-stop,2.877454,43.9584178
12208-C-015,Gare Routière,Boulevard Aristide Briand  12400 Saint-Affrique,Saint-Affrique,12208,Auto-stop,2.881665,43.9570006
12208-C-016,Centre Hospitalier,Avenue Lucien Galtier,Saint-Affrique,12208,Auto-stop,2.8750212,43.9572130
12208-C-017,Tiergues Village,Tiergues,Saint-Affrique,12208,Auto-stop,2.9358778,43.9884878
12208-C-018,Avenue Maurice Fournol,Avenue Maurice Fournol,Saint-Affrique,12208,Auto-stop,2.8932414,43.9548226
12208-C-019,Boulevard de Verdun,Boulevard de Verdun  Après le croisement de la rue Paul Bert,Saint-Affrique,12208,Auto-stop,2.8831349,43.9580433
12208-C-020,Lycée La Cazotte,Route de Bournac,Saint-Affrique,12208,Auto-stop,2.8521285,43.9582054
12208-C-021,Vailhauzy,Route de Millau,Saint-Affrique,12208,Auto-stop,2.9228208,43.9530230
12208-C-022,Boulevard Emile Borel,Boulevard Emile Borel,Saint-Affrique,12208,Auto-stop,2.892426,43.9551702
12208-C-023,Les Cazes,Avenue Georges Pompidou  Croisement Rue des Roses,Saint-Affrique,12208,Auto-stop,2.8767727,43.9600821
12208-C-024,Le Cambon,Le Cambon,Saint-Affrique,12208,Auto-stop,2.7887962,43.9646385
12208-C-025,ZI des Cazes,Rue Jules Védrines  Croisement Av. G Pompidou,Saint-Affrique,12208,Auto-stop,2.8613768,43.9589778
12208-C-026,Vendeloves,Vendeloves,Saint-Affrique,12208,Auto-stop,2.890633,43.9306053
12208-C-027,Stade Nautique Intercommunal,Boulevard de la Capelle,Saint-Affrique,12208,Auto-stop,2.8922517,43.9522796
12211-C-001,Saint-André-de-Vézines,Le Bourg,Saint-André-de-Vézines,12211,Auto-stop,3.2595,44.1514000
12212-C-001,Arrêt de bus,Grande route,Saint-Beaulize,12212,Auto-stop,3.110109,43.8957670
12212-C-002,Route de Saint Beaulize,Route de Saint Beaulize,Saint-Beaulize,12212,Auto-stop,3.1078201,43.8981939
12213-C-001,Azinières - Chemin de Vayssede,RD 30,Saint-Beauzély,12213,Auto-stop,2.9869,44.1521000
12213-C-002,Embranchement RD911,RD 30,Saint-Beauzély,12213,Auto-stop,3.00683,44.1532000
12213-C-003,Avenue Déodat Alaus,Avenue Déodat Alaus,Saint-Beauzély,12213,Auto-stop,2.959,44.1672000
12213-C-004,Route de Salles Curan,Avenue Déodat Alaus,Saint-Beauzély,12213,Auto-stop,2.9571,44.1627000
12213-C-005,Azinières - D30,RD 30,Saint-Beauzély,12213,Auto-stop,2.9879,44.1517000
12215-C-001,Pharmacie Saint christophe,Route de Decazeville,Saint-Christophe-Vallon,12215,Auto-stop,2.411676,44.4711040
12215-C-003,Complexe sportif,Route de Rodez,Saint-Christophe-Vallon,12215,Auto-stop,2.416263,44.4658250
12215-C-004,Zone d'activité du Vallon,Route de Rodez,Saint-Christophe-Vallon,12215,Auto-stop,2.415951,44.4659700
12215-C-005,Mairie Saint Christophe,Route de Rodez,Saint-Christophe-Vallon,12215,Auto-stop,2.412046,44.4706020
12221-C-001,Lunel,Place,Saint-Félix-de-Lunel,12221,Auto-stop,2.487566,44.5550350
12222-C-001,Saint-Félix de Sorgues,Le Bourg  12400 Saint-Félix-de-Sorgues,Saint-Félix-de-Sorgues,12222,Auto-stop,2.9872912,43.8827248
12225-C-001,Centre,Rue du Mas de Guillou,Saint-Georges-de-Luzençon,12225,Auto-stop,2.9833928,44.0636340
12225-C-002,Centre,Avenue des Près de Vabres,Saint-Georges-de-Luzençon,12225,Auto-stop,2.9855,44.0662500
12228-C-001,Saint-Izaire - Aire de Covoiturage,La Planque,Saint-Izaire,12228,Auto-stop,2.7210269,43.9731004
12228-C-002,Faveyrolles - Aire de Covoiturage,Faveyrolles,Saint-Izaire,12228,Auto-stop,2.6945589,43.9581889
12228-C-003,Croisement D200/D902,Le Batut,Saint-Izaire,12228,Auto-stop,2.6592825,43.9874060
12229-C-001,Saint-Jean d'Alcapiès,Le Bourg  Croisement rue Jean Moulin,Saint-Jean-d'Alcapiès,12229,Auto-stop,2.9722605,43.9516204
12229-C-002,Saint-Jean,D293,Saint-Jean-d'Alcapiès,12229,Auto-stop,2.9732744,43.9512342
12231-C-001,Place du manège,Place neuve,Saint-Jean-du-Bruel,12231,Auto-stop,3.358789,44.0234510
12231-C-002,Grand Rue,Grand Rue,Saint-Jean-du-Bruel,12231,Auto-stop,3.360259,44.0224530
12232-C-001,Saint Paul des Fonts,Route départementale 500,Saint-Jean-et-Saint-Paul,12232,Auto-stop,3.0663391,43.9302068
12232-C-002,Saint Jean d'Alcas,Saint Jean d'Alcas  Route départementale 516,Saint-Jean-et-Saint-Paul,12232,Auto-stop,3.0077905,43.9283930
12232-C-003,Massergues,Route départementale 93,Saint-Jean-et-Saint-Paul,12232,Auto-stop,3.0017303,43.9439960
12232-C-004,Route D93,Route départementale 93,Saint-Jean-et-Saint-Paul,12232,Auto-stop,3.0517148,43.9262875
12234-C-001,Aire du Viaur D902,Aire du Viaur,STE JULIETTE SUR VIAUR,12234,Parking,2.538522,44.216004
12240-C-001,Épicerie de Port d'Agrès,Port d'Agres,Saint-Parthem,12240,Auto-stop,2.2550459,44.6140084
12240-C-002,Sortie Saint Parthem,Carrefour RD 42,Saint-Parthem,12240,Auto-stop,2.317069,44.6266220
12240-C-003,Restaurant Port d'Agrès,Port d'Agrès,Saint-Parthem,12240,Auto-stop,2.255089,44.6138880
12243-C-001,Centre-Ville,Avenue de la République,Saint-Rome-de-Cernon,12243,Auto-stop,2.9637462,44.0117823
12243-C-002,Salle des Fêtes,Avenue de Millau,Saint-Rome-de-Cernon,12243,Auto-stop,2.9651248,44.0128549
12243-C-003,Salle des Fêtes,Avenue de Millau,Saint-Rome-de-Cernon,12243,Auto-stop,2.9649263,44.0128664
12243-C-004,Centre-Ville,Avenue de la République,Saint-Rome-de-Cernon,12243,Auto-stop,2.9638534,44.0120177
12244-C-001,Parking station de service Garage Courdy,Saint-Férréols Haut,ST ROME DE TARN,12244,Parking,2.908273,44.042188
12246-C-001,Saint Julien de Piganiol,Route de Decazeville au Cantal,Saint-Santin,12246,Auto-stop,2.2539569,44.6522476
12246-C-002,Abris Mas Pourquet,Mas Pourquet,Saint-Santin,12246,Auto-stop,2.2450951,44.6379485
12246-C-003,Bourg de Saint Santin,Le Bourg,Saint-Santin,12246,Auto-stop,2.216422,44.6497770
12254-C-001,Saveyrac,Face au croisement,SALLES LA SOURCE,12254,Parking,2.470475,44.423433
12254-C-008,Aéroport Rodez-Aveyron,aéroport Rodez-Aveyron Route de Decazeville,Salles-la-Source,12254,Auto-stop,2.4832926,44.4111241
12254-C-012,Cadayrac,D 27,Salles-la-Source,12254,Auto-stop,2.5567637,44.4649581
12254-C-013,le bourg,le bourg route de Rodez,Salles-la-Source,12254,Auto-stop,2.513423,44.4367910
12254-C-015,Cadayrac,D 27,Salles-la-Source,12254,Auto-stop,2.55651,44.4650170
12254-C-016,le bourg,le bourg route de Rodez,Salles-la-Source,12254,Auto-stop,2.513605,44.4368140
12267-C-001,Aire de la Roziere,La Roziere Basse,LA SELVE,12267,Aire de covoiturage,2.533378,44.123831
12268-C-001,Sénergue,route de Conques,Sénergues,12268,Auto-stop,2.4835,44.6053110
12268-C-002,Sénergue le Ribatel,le ribatel,Sénergues,12268,Auto-stop,2.482352,44.6042410
12282-C-001,Tournemire,Avenue Hipployte Puech,Tournemire,12282,Auto-stop,3.0175425,43.9704674
12286-C-001,Parking rond point Silo de Vabres l'Abbaye,Silo,VABRES L ABBAYE,12286,Parking,2.837302,43.951383
12286-C-002,Centre-Ville,Avenue du Dourdou,Vabres-l'Abbaye,12286,Auto-stop,2.838403,43.9464321
12286-C-003,Centre-Ville,Avenue du Dourdou,Vabres-l'Abbaye,12286,Auto-stop,2.8383816,43.9462622
12286-C-004,Silo - Aire de Covoiturage,La Salze,Vabres-l'Abbaye,12286,Auto-stop,2.8379041,43.9516345
12286-C-005,Salmanac,Salmanac,Vabres-l'Abbaye,12286,Auto-stop,2.8221864,43.9252976
12288-C-001,Nuces,D 840 Route de Rodez,Valady,12288,Auto-stop,2.441046,44.4404290
12288-C-002,Nuces,Route de Rodez,Valady,12288,Auto-stop,2.440563,44.4411570
12288-C-003,Valady,av du Pont de Tournemire,Valady,12288,Auto-stop,2.426219,44.4543840
12290-C-001,Bel-Air de Lanuejouls,Bel-Air de Lanuejouls,VAUREILLES,12290,Aire de covoiturage,2.193008,44.432609
12292-C-001,Lapeyre,Lapeyre,Versols-et-Lapeyre,12292,Auto-stop,2.9094465,43.9011726
12292-C-002,Versols,Versols,Versols-et-Lapeyre,12292,Auto-stop,2.9438378,43.8943152
12294-C-001,Aire des Vialettes,Rd29,VEZINS DE LEVEZOU,12294,Parking,2.91892,44.261131
12294-C-002,Aire du Roucous,Le Roucous,VEZINS DE LEVEZOU,12294,Parking,2.914402,44.240788
12295-C-001,Viala du Pas de Jaux,Route départementale 23,Viala-du-Pas-de-Jaux,12295,Auto-stop,3.0544287,43.9578143
12300-C-001,Parking D24 Route de Toulonjac,Route de Toulonjac,VILLEFRANCHE DE ROUERGUE,12300,Parking,2.01417,44.373495
12305-C-001,Gare SNCF,Avenue PAul ramadier,Viviez,12305,Auto-stop,2.217715,44.5567170
12305-C-003,Viviez barrière,Intermarché,Viviez,12305,Auto-stop,2.2184069,44.5597578
12305-C-004,Intermarché Viviez,Intermarché,Viviez,12305,Auto-stop,2.2183372,44.5596871
12305-C-005,Viviez Bourg,Avenue Jean Jaures,Viviez,12305,Auto-stop,2.218471,44.5531390
12307-C-001,Aire du Puech de Lauzeche,Puech De Lauzeche,CURAN,12307,Parking,2.875413,44.240365
13001-C-001,Avenue Arc de Meyran,Avenue Arc de Meyran,Aix-en-Provence,13001,Parking,5.445,43.511
13007-C-001,Parking Pharmacie du Pujol,D560,AURIOL,13007,Parking,5.648516,43.369287
13014-C-001,Aire de Berre L'Etang (Rond Point D10 D113),D10-D113,BERRE L ETANG,13014,Aire de covoiturage,5.197111,43.525897
13040-C-001,Aire de La Barque,D6-D96,FUVEAU,13040,Aire de covoiturage,5.538402,43.476744
13044-C-001,Parking de covoiturage de Grans,A54 Sortie 14 Grans,GRANS,13044,Aire de covoiturage,5.085574,43.623455
13059-C-001,Aire de Meyrargues,D556,MEYRARGUES,13059,Aire de covoiturage,5.495705,43.663113
13059-C-002,Aire de Meyrargues Rd556 (Extension),D556,MEYRARGUES,13059,Aire de covoiturage,5.494959,43.663145
13071-C-001,Parking Aire de Stationement Chemin de La Pourranque,D113,LES PENNES MIRABEAU,13071,Parking,5.298068,43.415103
13085-C-002,Parking de covoiturage de La Bédoule,A50 Sortie 7 La Bédoule,ROQUEFORT-LA-BEDOULE,13085,Aire de covoiturage,5.593414,43.243545
13113-C-001,Aire de Venelles,D96-D556,VENELLES,13113,Aire de covoiturage,5.496134,43.609266
14118-C-001,Parc relais Côte de Nacre,Boulevard Becquerel,Caen,14118,Parking relais,-0.361774,49.210559
14118-C-002,Parc relais Côte de Nacre,Boulevard Becquerel,Caen,14118,Parking relais,-0.361774,49.210559
14167-C-001,Parking du Chéteau d'eau,D226,COLOMBELLES,14167,Parking,-0.291906095,49.19922977
14174-C-001,Parking du SupermarchéBecocy,D512,CONDE EN NORMANDIE,14174,Parking,-0.563531933,48.85130404
14185-C-001,Aire de covoiturage Coudray-Rabut,151 Route de Honfleur D579,COUDRAY RABUT,14185,Aire de covoiturage,0.187595535,49.2977389
14327-C-001,Aire Hérouville Saint Clair Porte d'Angleterre,RN814,HEROUVILLE SAINT CLAIR,14327,Parking,-0.335847,49.191634
14341-C-001,Aire Ifs La dronniére,RN158,IFS,14341,Parking,-0.337174,49.136966
14341-C-002,Parc relais Jean Vilar,45 Avenue Jean Vilar,Ifs,14341,Parking relais,-0.350329,49.150590
14389-C-001,Parking covoiturage Villers Bocage,D6,MAISONCELLES PELVEY,14389,Aire de covoiturage,-0.658822909,49.06688977
14488-C-001,Aire Ouistreham Le Maresquier,RD515,OUISTREHAM,14488,Parking,-0.262502,49.263251
14579-C-001,Parking du rond point,D675,SEULLINE,14579,Parking,-0.711063614,49.05213487
14609-C-001,Aire de covoiturage de Guéron (Sortie 37),D572,ST LOUP HORS,14609,Aire de covoiturage,-0.722287401,49.25637257
14627-C-001,Aire de covoiturage Falaise,D511,ST MARTIN DE MIEUX,14627,Aire de covoiturage,-0.218292872,48.88671785
14630-C-001,Parking covoiturage Saint-Martin-des-Entrées,Rue de la Cartoucherie D33,ST MARTIN DES ENTREES,14630,Aire de covoiturage,-0.650534257,49.25138088
14712-C-001,Covoiturage de Troarn,A13 Sortie 31,TROARN,14712,Sortie d'autoroute,-0.202558,49.1789984
14762-C-001,Parking é cété du Campanile Vire,D55B,VIRE NORMANDIE,14762,Parking,-0.869746025,48.86725299
15012-C-001,Aire de covoiturage d'Emplainadieu,RIS RD920,ARPAJON SUR CERE,15012,Aire de covoiturage,2.450414,44.884186
15014-C-001,Aire de covoiturage d'Aurillac cété Sansac,RN122. aprés station essence,AURILLAC,15014,Aire de covoiturage,2.420675,44.907396
15014-C-002,Aire de covoiturage de Lascanaux,RD120-RD18,AURILLAC,15014,Aire de covoiturage,2.425653,44.930951
15030-C-001,Aire de covoiturage de Cayrols,Croisement RN122-RD51,CAYROLS,15030,Aire de covoiturage,2.23289,44.841353
15063-C-001,Aire de covoiturage des Quatre Routes de Salers,RD922,DRUGEAC,15063,Aire de covoiturage,2.404676,45.13612
15074-C-001,Aire de covoiturage de Giou-de-Mamou,RN122-RD58,GIOU DE MAMOU,15074,Aire de covoiturage,2.508465,44.926083
15094-C-001,Aire de covoiturage de l'échangeur du Pont d'Orgon,RD120-RD653-RD2,LAROQUEBROU,15094,Aire de covoiturage,2.222572,44.975347
15111-C-001,Aire de covoiturage de la Baraquette,RD922-RD3,MADIC,15111,Aire de covoiturage,2.469979,45.360779
15175-C-001,Aire de covoiturage de St-Cernin,RD922-RD160,ST CERNIN,15175,Aire de covoiturage,2.429642,45.052264
15176-C-001,Aire de covoiturage de St-Chamant,RD922-RD42,ST CHAMANT,15176,Aire de covoiturage,2.422911,45.090126
15188-C-001,Aire de covoiturage de Ruynes-en-Margeride,RD74-bretelleA75,ST GEORGES,15188,Aire de covoiturage,3.169615,45.000927
15202-C-001,Aire de covoiturage de Besse,RD922-RD42,ST MARTIN VALMEROUX,15202,Aire de covoiturage,2.402045,45.104695
15265-C-001,Aire de covoiturage des Quatre Routes de Saignes,RD922-RD15,YDES,15265,Aire de covoiturage,2.463152,45.353551
15267-C-001,Aire de covoiturage de Montméghe,RD120-RD922,YTRAC,15267,Aire de covoiturage,2.408459,44.936088
16028-C-001,L'Oisillon,Ex station-service Shell - Avenue Félix Gaillard (D 910),Barbezieux-Saint-Hilaire,16028,Aire de covoiturage,-0.142626,45.48165
16028-C-002,L'Avenue de L'Europe,Parking Intermarché - Avenue de l'Europe,Barbezieux-Saint-Hilaire,16028,Aire de covoiturage,-0.161995,45.47624
16073-C-001,Le Fagnard,Giratoire RD674/RD731/RD20,Chalais,16073,Aire de covoiturage,0.035446,45.27298
16078-C-001,Champniers - Pont de Combier,Echangeur nord Les Chauvauds - Giratoire N10-D910-D37,Champniers,16078,Aire de covoiturage,0.184775,45.71731
16085-C-001,Chantebuse,Giratoire de Chante Buse,Chasseneuil-sur-Bonnieure,16085,Aire de covoiturage,0.467048,45.83213
16089-C-001,La pointe à Rullaud,Aux abords carrefour RD731/RD149 Chemin de Treillis,Châteaubernard,16089,Aire de covoiturage,-0.328885,45.66764
16089-C-002,La Trache,A proximité directe du giratoire RN 141 de la Trache le long de la RD149,Châteaubernard,16089,Aire de covoiturage,-0.293278,45.68026
16095-C-001,Chenon - Maisons Rouges,Chemin de Bel Air,Chenon,16095,Aire de covoiturage,0.203251,45.93610
16102-C-001,Crouin,Boulevard André Malraux,Cognac,16102,Aire de covoiturage,-0.350831,45.69314
16106-C-001,Confolens - Lycée Emile Roux,Avenue du Général de Gaulle (D948),Confolens,16106,Aire de covoiturage,0.673277,46.00390
16106-C-002,Terre Neuve,RD948_GIR_4,Confolens,16106,Aire de covoiturage,0.653382,46.02552
16119-C-001,L'Échelle,Rue de la Clef d'Or (D 939),Dignac,16119,Aire de covoiturage,0.277379,45.55762
16125-C-001,Édon - La Tonnelle du Parc,Les Justices (D 939),Édon,16125,Aire de covoiturage,0.364099,45.48901
16132-C-001,Mons,RD941_GIR_0  Giratoire de Mons,Étagnac,16132,Aire de covoiturage,0.816801,45.88828
16134-C-001,Chêne Vert,Giratoire de Chantalouette,Exideuil-sur-Vienne,16134,Aire de covoiturage,0.690787,45.87257
16138-C-001,Brénat,D 37,Fléac,16138,Aire de covoiturage,0.072553,45.68471
16143-C-001,LÉtang Genevreaux,"Lieu-dit ""L'Etang Genevreaux""",Fouquebrune,16143,Aire de covoiturage,0.179956,45.53535
16153-C-001,Mainxe - Montagan,Echangeur de Montagan - Giratoire sud N141-D736,Mainxe-Gondeville,16153,Aire de covoiturage,-0.189338,45.66835
16167-C-001,La Belloire,Échangeur nord-déviation de Jarnac « La Belloire » (D941/D194),Jarnac,16167,Aire de covoiturage,-0.139842,45.69258
16200-C-001,Moulin à Vent,Echangeur sud de Mansle - Giratoire N10-D40,Maine-de-Boixe,16200,Aire de covoiturage,0.18456,45.86260
16211-C-001,Marthon,"12, Rue des Écoles (D 4)",Marthon,16211,Aire de covoiturage,0.439021,45.61189
16216-C-001,Mérignac,A proximité directe du giratoire RN 141,Mérignac,16216,Aire de covoiturage,-0.08585,45.69218
16276-C-001,Reignac,Giratoire RN10/RD910/RD14,Reignac,16276,Aire de covoiturage,-0.174848,45.42764
16281-C-001,La Bécasse,Echangeur de St-Projet,La Rochefoucauld-en-Angoumois,16281,Aire de covoiturage,0.344547,45.73613
16286-C-001,Rouillac - Près de Lorret,"482, Route d'Aigre - Lieu-dit Lorret (carrefour D939/D736)",Rouillac,16286,Aire de covoiturage,-0.06291,45.77953
16287-C-001,Roullet Le Berguille,"Echangeur de la N 10 / D 7 au lieu dit ""le Berguille""",Roullet-Saint-Estèphe,16287,Aire de covoiturage,0.03377,45.57490
16350-C-001,Saint-Séverin - Le stade,Rue du Stade,Saint-Séverin,16350,Aire de covoiturage,0.249987,45.31398
16358-C-001,Jaurès - Les planes,Les Planes - Rue de Royan (RN 141),Saint-Yrieix-sur-Charente,16358,Aire de covoiturage,0.12039,45.66791
16358-C-002,Villesèche,Route de Saint-Jean-d'Angély,Saint-Yrieix-sur-Charente,16358,Aire de covoiturage,0.103644,45.69126
16382-C-001,Torsac - Place blanche,Face au cimetière (D41),Torsac,16382,Aire de covoiturage,0.213767,45.56485
17003-C-001,Aire de covoiturage d'Aigrefeuille Place du mai,6 Rue de la Poste. 17290 Aigrefeuille-d'Aunis,AIGREFEUILLE D AUNIS,17003,Aire de covoiturage,-0.936286,46.115006
17003-C-002,Aire de covoiturage d'Aigrefeuille Stade,61 Rue du Vieux Fief. 17290 Aigrefeuille-d'Aunis,AIGREFEUILLE D AUNIS,17003,Aire de covoiturage,-0.943357,46.123345
17005-C-001,Salle Communale,Avenue de Saintonge,Allas-Bocage,17005,Auto-stop,-0.492448,45.3842790
17005-C-002,Mairie,Avenue de Saintonge,Allas-Bocage,17005,Auto-stop,-0.492968,45.3844740
17006-C-002,Arrêt de bus coté école,Route de Jonzac,Allas-Champagne,17006,Auto-stop,-0.334301,45.4717530
17008-C-001,RUE DES RAISES,5 rue des Raises,Andilly,17008,Auto-stop,-1.0244,46.2530300
17009-C-001,Aire de covoiturage d'Angliers Echangeur,D109. 17540 Angliers,ANGLIERS,17009,Aire de covoiturage,-0.945902,46.225145
17009-C-002,RUE DU MOULIN,14 Rue du moulin,Angliers,17009,Auto-stop,-0.957602,46.2142850
17010-C-001,Aire de covoiturage d'Angoulins Paradis,Les Cadelis E. 17690 Angoulins,ANGOULINS,17010,Aire de covoiturage,-1.09308,46.104536
17016-C-001,Aire de covoiturage d'Archiac Le Tonneau,100 Route de Cognac. 17520 Archiac,ARCHIAC,17016,Aire de covoiturage,-0.303478,45.528005
17016-C-002,Garage,23 Route de Cognac,Archiac,17016,Auto-stop,-0.30309,45.5264490
17016-C-003,MTL - Stade,Rue des Voituriers (entrée du Stade),Archiac,17016,Auto-stop,-0.303476,45.5244650
17016-C-004,Place de la Mairie,Place de la Mairie,Archiac,17016,Auto-stop,-0.301615,45.5215770
17016-C-005,Cabinet médical,Route de St Maigrin (entrée du lot. Les Acacias),Archiac,17016,Auto-stop,-0.300472,45.5173050
17016-C-007,Rue de la part des anges,Route de Cognac,Archiac,17016,Auto-stop,-0.303969,45.5276820
17016-C-008,Rue de Riveron,Rue de Riveron,Archiac,17016,Auto-stop,-0.304715,45.5206990
17021-C-001,Aire de covoiturage d'Arvert l'Etrade,2 Ter Rue des Justices. 17530 Arvert,ARVERT,17021,Aire de covoiturage,-1.140648,45.756669
17024-C-001,Aire de covoiturage du Stade,14 Route de Poitiers. 17470 Aulnay,AULNAY,17024,Aire de covoiturage,-0.354371,46.024441
17027-C-001,Arrêt de bus,Rue Charles de Gaulle,Avy,17027,Auto-stop,-0.509512,45.5531410
17033-C-001,Abri bus - Le Bourg,Rue de la Mairie,La Barde,17033,Auto-stop,-0.039957,45.1226480
17033-C-002,Abri Bus - Chiron,Rue du Goulor,La Barde,17033,Auto-stop,-0.05343,45.1050610
17038-C-001,Place du village,40 Av. Anne d'Autriche,Bedenac,17038,Auto-stop,-0.300835,45.1662790
17038-C-004,Arrêt de bus,Mairie,Bedenac,17038,Auto-stop,-0.299281,45.1661610
17041-C-001,Aire de covoiturage de Benon Echangeur,RN11. Les Quatre Routes. 17170 Benon,BENON,17041,Aire de covoiturage,-0.80858,46.220975
17045-C-001,Aire de covoiturage de Beurlay Centre,6 Résidence du Moulin. 17250 Beurlay,BEURLAY,17045,Aire de covoiturage,-0.838496,45.861992
17050-C-001,Arrêt de bus,D 143,Bois,17050,Auto-stop,-0.59746,45.4871100
17052-C-001,Arrêt de bus sortie bourg,Route de Marcillac,Boisredon,17052,Auto-stop,-0.539537,45.3140510
17052-C-002,Garage sortie bourg,Route de Mirambeau,Boisredon,17052,Auto-stop,-0.539955,45.3147500
17052-C-003,Mairie,Route de Soubran,Boisredon,17052,Auto-stop,-0.538116,45.3150000
17055-C-001,Salle polyvalente,6 rue Bois Charmant,Boscamnant,17055,Auto-stop,-0.068561,45.1975370
17056-C-001,Mairie,50 route de Cognac,Bougneau,17056,Auto-stop,-0.513922,45.5965410
17056-C-002,Garage,27 route de Cognac,Bougneau,17056,Auto-stop,-0.514528,45.5964960
17058-C-001,Aire de covoiturage de Bourcefranc-le-Chapus Pont,Grand Fief de Sinche. 17560 Bourcefranc-le-Chapus,BOURCEFRANC LE CHAPUS,17058,Aire de covoiturage,-1.162467,45.846118
17060-C-001,Aire de covoiturage de Boutenac-Touvent Mairie,44 Route Céte de Beauté. 17120 Boutenac-Touvent,BOUTENAC TOUVENT,17060,Aire de covoiturage,-0.755722,45.504361
17073-C-001,CHOISY,D 114,Bussac-sur-Charente,17073,Auto-stop,-0.6321182,45.8072677
17073-C-002,LES MAILLEAUX,ROUTE DU VAL DE CHARENTE,Bussac-sur-Charente,17073,Auto-stop,-0.6364258,45.8005943
17073-C-003,LE PONTREAU,ROUTE DU VAL DE CHARENTE,Bussac-sur-Charente,17073,Auto-stop,-0.638595,45.7948995
17073-C-004,ECOLE,ROUTE DU VAL DE CHARENTE,Bussac-sur-Charente,17073,Auto-stop,-0.6353958,45.7886685
17073-C-005,LA CROIX,ROUTE DU VAL DE CHARENTE,Bussac-sur-Charente,17073,Auto-stop,-0.631639,45.7839710
17074-C-001,Place du Champ de Foire,Place du Champ de Foire,Bussac-Forêt,17074,Auto-stop,-0.370311,45.2125690
17074-C-002,Route de Blaye,2 route de Blaye,Bussac-Forêt,17074,Auto-stop,-0.370735,45.2119910
17074-C-003,Route de St Yzan,12/14 Route de St Yzan,Bussac-Forêt,17074,Auto-stop,-0.369445,45.2106500
17074-C-004,Vival,4 rue de la mairie,Bussac-Forêt,17074,Auto-stop,-0.369272,45.2121680
17074-C-005,Route de la cimenterie,Route de la cimenterie,Bussac-Forêt,17074,Auto-stop,-0.367827,45.2139260
17077-C-001,La République,20 rue de la république,Cercoux,17077,Auto-stop,-0.204605,45.1312250
17077-C-002,La Boye,Arrêt de bus Rue de la Boye,Cercoux,17077,Auto-stop,-0.204413,45.1302830
17077-C-003,La Métairie,6 route de la Métairie,Cercoux,17077,Auto-stop,-0.20832,45.1298460
17078-C-001,Place du Bar-Boulangerie,Rue de la salle des fêtes,Chadenac,17078,Auto-stop,-0.44253,45.5418600
17078-C-002,Arrêt de bus,Route de la cité Blanche Neige,Chadenac,17078,Auto-stop,-0.44262,45.5416300
17078-C-003,Mairie,Rue du stade,Chadenac,17078,Auto-stop,-0.447174,45.5407580
17081-C-001,Abri bus,Le Bourg - Au moulin à vent,Chamouillac,17081,Auto-stop,-0.46428,45.3143800
17081-C-002,Arrêt de bus,Le Bourg,Chamouillac,17081,Auto-stop,-0.46513,45.3147400
17084-C-001,Abri bus place de l'école,Impasse du Plantis,Champagnolles,17084,Auto-stop,-0.6361,45.5125200
17084-C-002,Vival,Rue du vélodrome,Champagnolles,17084,Auto-stop,-0.63699,45.5118700
17089-C-001,MAIRIE,ROUTE DE BURIE,La Chapelle-des-Pots,17089,Auto-stop,-0.541694,45.7598440
17091-C-001,ROUTE DE MARANS,2 route de Marans,Charron,17091,Auto-stop,-1.087175,46.3052130
17091-C-002,BAS DE LA LAISSE,13 rue de la Laisse,Charron,17091,Auto-stop,-1.107297,46.2950650
17091-C-003,ROUTE DE VILLEDOUX,2 route de Villedoux,Charron,17091,Auto-stop,-1.087906,46.3048620
17092-C-001,Impasse du Bourg,Route de Tugéras,Chartuzac,17092,Auto-stop,-0.41791,45.3392600
17092-C-002,Mairie,Route de Tugéras,Chartuzac,17092,Auto-stop,-0.41931,45.3395600
17094-C-001,Aire de covoiturage de Chatelaillon Le Haut-Rillon,Avenue du Haut Rillon. 17340 Chételaillon-Plage,CHATELAILLON PLAGE,17094,Aire de covoiturage,-1.079149,46.080525
17096-C-001,Porche-halle,2 route des Halles,Chaunac,17096,Auto-stop,-0.357947,45.3592390
17096-C-002,Chez Ballon - abribus,11 route de Jonzac,Chaunac,17096,Auto-stop,-0.356182,45.3621910
17099-C-001,Arrêt de bus,Place Gallais,Chepniers,17099,Auto-stop,-0.308431,45.2568600
17099-C-002,Arrêt de bus,Place de l'ancienne poste,Chepniers,17099,Auto-stop,-0.309479,45.2569370
17102-C-001,Aire de covoiturage de Chermignac Les Tilleuls,10 Avenue du Littoral. 17460 Chermignac,CHERMIGNAC,17102,Aire de covoiturage,-0.675533,45.684884
17104-C-001,Aire de covoiturage de Chevanceaux RN,D910. 17210 Chevanceaux,CHEVANCEAUX,17104,Aire de covoiturage,-0.238894,45.29498
17104-C-002,SARL Fradon,22 Route de Libourne,Chevanceaux,17104,Auto-stop,-0.230525,45.3020510
17104-C-003,MFR,74 Avenue de Paris,Chevanceaux,17104,Auto-stop,-0.233123,45.3032310
17104-C-004,Aire de covoiturage,A la Gare,Chevanceaux,17104,Auto-stop,-0.238337,45.2948980
17104-C-005,Rue Traversière,Avenue de Paris,Chevanceaux,17104,Auto-stop,-0.232977,45.3033640
17104-C-006,Jardinerie Valbrie,A la Gare,Chevanceaux,17104,Auto-stop,-0.238141,45.2949280
17104-C-007,Avenue de Paris,9 Avenue de Paris,Chevanceaux,17104,Auto-stop,-0.231734,45.3087170
17104-C-008,Ancien garage,D 142 - 2 route de Jonzac,Chevanceaux,17104,Auto-stop,-0.232416,45.3079540
17106-C-001,Abri bus - aire de loisirs,Rue des écoles,Cierzac,17106,Auto-stop,-0.313868,45.5692820
17106-C-002,Mairie,4 rue de la petite champagne,Cierzac,17106,Auto-stop,-0.309983,45.5676150
17108-C-001,Parking Mairie / Vieux logis,Rue du 8 Mai 1945,Clam,17108,Auto-stop,-0.44886,45.4930200
17110-C-001,Place de la Mairie,Place de la Mairie,Clérac,17110,Auto-stop,-0.227891,45.1812280
17111-C-001,Avenue Saint André,Av. St André,Clion,17111,Auto-stop,-0.5016,45.4813000
17111-C-003,Saint Paul,Rue de St Paul,Clion,17111,Auto-stop,-0.49142,45.4667800
17112-C-001,MAIRIE,ROUTE DE MARENNES,La Clisse,17112,Auto-stop,-0.7638683,45.7332383
17112-C-002,LA FEUILLEE,ROUTE DE MARENNES,La Clisse,17112,Auto-stop,-0.7501681,45.7355394
17112-C-003,ECOLE,ROUTE DE MARENNES,La Clisse,17112,Auto-stop,-0.7552155,45.7343391
17116-C-001,Ecole,18 Rue de l'école,Consac,17116,Auto-stop,-0.59559,45.4162600
17116-C-002,La Bergerie,11 la bergerie,Consac,17116,Auto-stop,-0.56541,45.4283350
17116-C-003,la Bergerie,26 la bergerie,Consac,17116,Auto-stop,-0.56536,45.4295900
17116-C-004,Arrêt de bus - Bourg de Consac,Place de l'Eglise,Consac,17116,Auto-stop,-0.59456,45.4173300
17118-C-001,Mairie,1 place Claude Poget,Corignac,17118,Auto-stop,-0.390481,45.2480170
17120-C-001,Aire de covoiturage de Corme-Royal Les Ormeaux,12 Résidence les Ormeaux. 17600 Corme-Royal,CORME ROYAL,17120,Aire de covoiturage,-0.813305,45.740425
17122-C-001,Place de l'Eglise,Rue des Ecoles,Coulonges,17122,Auto-stop,-0.424047,45.6095420
17122-C-002,Rue des Ecoles,Rue des grands jardins,Coulonges,17122,Auto-stop,-0.424293,45.6095870
17127-C-001,Aire de covoiturage de Couréon Vallée d'Aulnes,52 Rue de Benon. 17170 Couréon,COURCON,17127,Aire de covoiturage,-0.814227,46.235069
17127-C-005,RUE DE BENON,rue de Benon,Courçon,17127,Auto-stop,-0.813237,46.2426380
17128-C-001,CHEZ BERNE,ROUTE DE CORCOSSE,Courcoury,17128,Auto-stop,-0.542981,45.6987050
17128-C-002,CHEZ DESCHAMPS,RUE DES GRANDS CHAMPS,Courcoury,17128,Auto-stop,-0.573338,45.7094830
17128-C-003,ECOLE,RUE PIERRE SCHOEFFER,Courcoury,17128,Auto-stop,-0.5776961,45.7108238
17128-C-004,CHEMIN DU PRINTEMPS,RUE PIERRE SCHOEFFER,Courcoury,17128,Auto-stop,-0.5804983,45.7125613
17129-C-001,Abri Bus,Le Bourg,Courpignac,17129,Auto-stop,-0.486722,45.3276840
17129-C-002,Arrêt de bus,Le Bourg,Courpignac,17129,Auto-stop,-0.486043,45.3274630
17130-C-001,Croix de Jean Vérat - abri bus,Allée de la Croix Jean Vérat,Coux,17130,Auto-stop,-0.41195,45.3172900
17130-C-002,Le Bourg,Place du cimetière (Heulant),Coux,17130,Auto-stop,-0.4041,45.3124600
17131-C-001,Aire de covoiturage de Cozes Bonne nouvelle,RD 730. Route de Bordeaux. 17120 Cozes,COZES,17131,Aire de covoiturage,-0.820842,45.576344
17140-C-001,Aire de covoiturage de Dolus d'Oléron Délidon,Route du Viaduc. 17550 Dolus-d'Oléron,DOLUS D OLERON,17140,Aire de covoiturage,-1.252945,45.901564
17146-C-001,Aire de covoiturage d'Echillais Pimale,D733. 17620 échillais,ECHILLAIS,17146,Aire de covoiturage,-0.965332,45.905819
17147-C-002,ROUTE ROMAINE,ROUTE ROMAINE,Écoyeux,17147,Auto-stop,-0.506251,45.8177340
17156-C-001,Place de la Mairie,Le Bourg,Expiremont,17156,Auto-stop,-0.37163,45.3241700
17163-C-001,La Petite Fontaine,Bar Tabac La Petite Fontaine,Fontaines-d'Ozillac,17163,Auto-stop,-0.383135,45.3873040
17163-C-002,La Gare,La Gare,Fontaines-d'Ozillac,17163,Auto-stop,-0.383706,45.3881960
17163-C-003,Place du Dr Fleury,Place du Dr Fleury,Fontaines-d'Ozillac,17163,Auto-stop,-0.380312,45.3841460
17164-C-001,LA PINSONNERIE,ROUTE DE SAINT JEAN D'ANGELYS,Fontcouverte,17164,Auto-stop,-0.584153,45.7649180
17164-C-002,CENTRE BOURG,ROUTE DU BOURG,Fontcouverte,17164,Auto-stop,-0.591325,45.7703220
17164-C-003,LORMONT BAS,ROUTE DE TAILLEBOURG,Fontcouverte,17164,Auto-stop,-0.617525,45.7620140
17164-C-004,CHEZ BORET,ROUTE DE CHEZ BORET,Fontcouverte,17164,Auto-stop,-0.610385,45.7656520
